구분,화장실명,소재지도로명주소,소재지지번주소,남녀공용화장실여부,남성용-대변기수,남성용-소변기수,남성용-장애인용대변기수,남성용-장애인용소변기수,남성용-어린이용대변기수,남성용-어린이용소변기수,여성용-대변기수,여성용-장애인용대변기수,여성용-어린이용대변기수,관리기관명,전화번호,개방시간,설치연월,위도,경도,화장실소유구분,오물처리방식,비상벨설치여부,비상벨설치장소,화장실입구cctv설치여부,기저귀교환대유무,기저귀교환대장소,리모델링연월,데이터기준일자
공중화장실,진원프라자,경기도 고양시 일산동구 정발산로 27,"경기도 고양시 일산동구 정발산로 27 (장항동, 진원프라자)",N,2,3,0,0,0,0,2,0,0,일산동구청 환경녹지과 청소행정팀,031-8075-6243,:~:,,37.6569377884,126.7718356549,N,N,N,N,N,N,N,,2022-04-08
공중화장실,웨스턴돔 타워,,"경기도 고양시 일산동구 정발산로 24 (장항동, 웨스턴돔1)",N,1,2,1,0,0,0,2,1,0,일산동구청 환경녹지과,031-8075-6243,00:00~24:00,,37.6558930852,126.7719705633,N,N,N,N,N,N,N,,2022-04-08
공중화장실,호수빌딩,경기도 고양시 일산동구 정발산로 23,"경기도 고양시 일산동구 정발산로 23 (장항동, 호수빌딩)",N,13,18,0,0,0,0,14,0,0,일산동구청 환경녹지과,031-8075-6243,:~:,,37.6567272061,126.7713048729,N,N,N,N,N,N,N,,2022-04-08
공중화장실,지평프라자,,"경기도 고양시 일산동구 정발산로 19 (장항동, 지평프라자)",N,11,11,0,0,0,0,28,0,0,일산동구청 환경녹지과 청소행정팀,031-8075-6243,:~:,,37.6567230023,126.7706246946,N,N,N,N,N,N,N,,2022-04-08
공중화장실,일호골든타워,,"경기도 고양시 일산동구 정발산로 11 (장항동, 일호골든타워)",N,7,7,0,0,0,0,7,0,0,일산동구청 환경녹지과,031-8075-6243,:~:,,37.6565580392,126.7701841668,N,N,N,N,N,N,N,,2022-04-08
공중화장실,한경(알파휘트니스센터),경기도 고양시 일산동구 장백로 86,"경기도 고양시 일산동구 장백로 86 (백석동, 한경빌딩)",N,2,2,0,0,0,0,2,0,0,일산동구청 환경녹지과 청소행정팀,031-8075-6243,:~:,,37.6447479877,126.7844573683,N,N,N,N,N,N,N,,2022-04-08
공중화장실,크리스탈빌딩 백석동,경기도 고양시 일산동구 장백로 56,"경기도 고양시 일산동구 장백로 56 (백석동, 크리스탈빌딩)",N,10,24,0,0,0,0,20,0,0,일산동구청 환경녹지과,031-8075-6243,:~:,,37.6429685219,126.7867980942,N,N,N,N,N,N,N,,2022-04-08
공중화장실,코스트코 일산점 2층,경기도 고양시 일산동구 장백로 25,"경기도 고양시 일산동구 장백로 25 (백석동, 코스트코 일산점)",N,7,12,0,0,0,0,19,0,0,일산동구 환경녹지과,031-8075-6243,10:00~22:00,,37.6405441824,126.7883287660,N,N,N,N,N,N,N,,2022-04-08
공중화장실,코스트코 일산점 1층,경기도 고양시 일산동구 장백로 25,"경기도 고양시 일산동구 장백로 25 (백석동, 코스트코 일산점)",N,7,12,0,0,0,0,19,0,0,일산동구 환경녹지과,031-8075-6243,10:00~22:00,,37.6405441824,126.7883287660,N,N,N,N,N,N,N,,2022-04-08
공중화장실,이지로 빌딩,경기도 고양시 일산동구 장백로 206,"경기도 고양시 일산동구 장백로 206 (장항동, 이지로빌딩)",N,16,16,0,0,0,0,16,0,0,일산동구청 환경녹지과 청소행정팀,031-8075-6243,:~:,,37.6530432874,126.7761021764,N,N,N,N,N,N,N,,2022-04-08
공중화장실,백석레저타운,경기도 고양시 일산동구 일산로 46,경기도 고양시 일산동구 일산로 46 (일산동),N,12,29,0,0,0,0,23,0,0,일산동구청 환경녹지과 청소행정팀,031-8075-6243,:~:,,37.6423442708,126.7879035396,N,N,N,N,N,N,N,,2022-04-08
공중화장실,남정씨티프라자 3차,경기도 고양시 일산동구 일산로 46,"경기도 고양시 일산동구 일산로 46 (백석동, 남정씨티프라자)",N,6,5,0,0,0,0,5,0,0,일산동구청 환경녹지과 청소행정팀,031-8075-6243,00:00~00:00,,37.6423442708,126.7879035396,N,N,N,N,N,N,N,,2022-04-08
공중화장실,효성레저스 오피스텔,,"경기도 고양시 일산동구 일산로 30 (백석동, 효성레제스오피스텔)",N,2,2,0,0,0,0,2,0,0,일산동구청 환경녹지과 청소행정팀,031-8075-6243,:~:,,37.6414450932,126.7867673205,N,N,N,N,N,N,N,,2022-04-08
공중화장실,현대오일뱅크,경기도 고양시 일산동구 일산로 144,"경기도 고양시 일산동구 일산로 144 (백석동, 백석동주유소)",N,1,2,0,0,0,0,1,0,0,일산동구청 환경녹지과 청소행정팀,031-8075-6243,:~:,,37.6497486033,126.7931380660,N,N,N,N,N,N,N,,2022-04-08
공중화장실,중산실내수영장2,경기도 고양시 일산동구 약산길 2,"경기도 고양시 일산동구 약산길 2 (중산동, 부성빌딩)",N,0,2,0,0,0,0,2,0,0,일산동구 환경녹지과,031-8075-6243,:~:,,37.6792718480,126.7924497740,N,N,N,N,N,N,N,,2022-04-08
공중화장실,스타 골프클럽,경기도 고양시 일산동구 애니골길43번길 67,경기도 고양시 일산동구 애니골길43번길 67 (풍동),N,1,1,0,0,0,0,2,0,0,일산동구청 환경녹지과 청소행정팀,031-8075-6243,:~:,,37.6728570071,126.7883831282,N,N,N,N,N,N,N,,2022-04-08
공중화장실,타워빌딩,경기도 고양시 일산동구 애니골길 14-23,경기도 고양시 일산동구 애니골길 14-23 (풍동),N,8,12,0,0,0,0,10,0,0,일산동구청 환경녹지과 청소행정팀,031-8075-6243,:~:,,37.6685579406,126.7914176241,N,N,N,N,N,N,N,,2022-04-08
공중화장실,중앙프라자 B동,,"경기도 고양시 일산동구 숲속마을로 50-76 (풍동, 중앙프라자)",N,6,6,0,0,0,0,6,0,0,일산동구청 환경녹지과 청소행정팀,031-8075-6243,:~:,,37.6677543174,126.7987160382,N,N,N,N,N,N,N,,2022-04-08
공중화장실,영진프라자,경기도 고양시 일산동구 숲속마을로 50-70,"경기도 고양시 일산동구 숲속마을로 50-70 (풍동, 영진프라자)",N,6,12,0,0,0,0,11,0,0,일산동구청 환경녹지과,031-8075-6243,:~:,,37.6677295707,126.7991017863,N,N,N,N,N,N,N,,2022-04-08
공중화장실,세훈프라자,경기도 고양시 일산동구 숲속마을로 50-54,"경기도 고양시 일산동구 숲속마을로 50-54 (풍동, 세훈프라자)",N,4,4,0,0,0,0,6,0,0,일산동구청 환경녹지과,031-8075-6243,:~:,,37.6678937533,126.7994290647,N,N,N,N,N,N,N,,2022-04-08
공중화장실,중앙프라자 A동,,"경기도 고양시 일산동구 숲속마을로 50-38 (풍동, 중앙프라자)",N,5,12,0,0,0,0,7,0,0,일산동구청 환경녹지과 청소행정팀,031-8075-6243,:~:,,37.6679347069,126.7987370182,N,N,N,N,N,N,N,,2022-04-08
공중화장실,풍동미래타워,경기도 고양시 일산동구 숲속마을로 44,"경기도 고양시 일산동구 숲속마을로 44 (풍동, 풍동 미래타워)",N,6,8,0,0,0,0,14,0,0,일산동구청 환경녹지과 청소행정팀,031-8075-6243,:~:,,37.6674090687,126.7982544029,N,N,N,N,N,N,N,,2022-04-08
공중화장실,풍동프라자,경기도 고양시 일산동구 숲속마을로 26,"경기도 고양시 일산동구 숲속마을로 26 (풍동, 풍동프라자)",N,12,13,0,0,0,0,14,0,0,일산동구청 환경녹지과 청소행정팀,031-8075-6243,:~:,,37.6673408186,126.8004207226,N,N,N,N,N,N,N,,2022-04-08
공중화장실,진넥스,경기도 고양시 일산동구 숲속마을로 22,"경기도 고양시 일산동구 숲속마을로 22 (풍동, 진넥스 블루오션)",N,12,18,0,0,0,0,15,0,0,일산동구청 환경녹지과 청소행정팀,031-8075-6243,:~:,,37.6673158646,126.8007724540,N,N,N,N,N,N,N,,2022-04-08
공중화장실,대한골프클럽,경기도 고양시 일산동구 성현로659번길 224,경기도 고양시 일산동구 성현로659번길 224 (사리현동),N,14,27,0,0,0,0,24,0,0,일산동구청 환경녹지과 청소행정팀,031-8075-6243,:~:,,37.6959366456,126.8453993062,N,N,N,N,N,N,N,,2022-04-08
공중화장실,클린파크주유소,경기도 고양시 일산동구 성현로 78,"경기도 고양시 일산동구 성현로 78 (성석동, 클린파크주유소)",N,1,1,0,0,0,0,1,0,0,일산동구청 환경녹지과 청소행정팀,031-8075-6243,:~:,,37.7068840426,126.7947512307,N,N,N,N,N,N,N,,2022-04-08
공중화장실,진 골프장,경기도 고양시 일산동구 성현로 495,경기도 고양시 일산동구 성현로 495 (사리현동),N,7,7,0,0,0,0,8,0,0,일산동구청 환경녹지과 청소행정팀,031-8075-6243,:~:,,37.6981004922,126.8374512910,N,N,N,N,N,N,N,,2022-04-08
공중화장실,진골프클럽,경기도 고양시 일산동구 성현로 495,경기도 고양시 일산동구 성현로 495 (사리현동),N,12,16,0,0,0,0,17,0,0,일산동구청 환경녹지과 청소행정팀,031-8075-6243,:~:,,37.6981004922,126.8374512910,N,N,N,N,N,N,N,,2022-04-08
공중화장실,동일산주유소,경기도 고양시 일산동구 성현로 469,"경기도 고양시 일산동구 성현로 469 (사리현동, 동일산주유소)",N,3,3,0,0,0,0,3,0,0,일산동구청 환경녹지과,031-8075-6043,:~:,,37.6983359855,126.8344545468,N,N,N,N,N,N,N,,2022-04-08
공중화장실,영 에버 골프연습장,경기도 고양시 일산동구 성석로 62,"경기도 고양시 일산동구 성석로 62 (중산동, 영 에버 골프연습장)",N,3,5,0,0,0,0,4,0,0,일산동구청 환경녹지과 청소행정팀,031-8075-6243,:~:,,37.6849347479,126.7928836576,N,N,N,N,N,N,N,,2022-04-08
공중화장실,양우드라마시티,,"경기도 고양시 일산동구 백마로213번길 36 (장항동, 양우드라마시티)",N,2,2,0,0,0,0,1,0,0,일산동구청 환경녹지과 청소행정팀,031-8075-6243,:~:,,37.6559911114,126.7732506735,N,N,N,N,N,N,N,,2022-04-08
공중화장실,청용오일뱅크,경기도 고양시 일산동구 백마로 590,경기도 고양시 일산동구 백마로 590 (식사동),N,1,2,0,0,0,0,1,0,0,일산동구청 환경녹지과,031-8075-6243,:~:,,37.6659026306,126.8133600082,N,N,N,N,N,N,N,,2022-04-08
공중화장실,풍림주유소,경기도 고양시 일산동구 백마로 522,경기도 고양시 일산동구 백마로 522 (풍동),N,2,2,0,0,0,0,2,0,0,일산동구청 환경녹지과 청소행정팀,031-8075-6243,:~:,,37.6632810506,126.8058783941,N,N,N,N,N,N,N,,2022-04-08
공중화장실,현대 에뜨레보,,"경기도 고양시 일산동구 백마로 223 (장항동, 현대 에뜨레보)",N,14,11,0,0,0,0,10,0,0,일산동구청 환경녹지과 청소행정팀,031-8075-6243,:~:,,37.6550432318,126.7744729433,N,N,N,N,N,N,N,,2022-04-08
개방화장실,경춘선 자전거도로(답내리)[답내-1],,경기도 남양주시 화도읍 답내리 496-6천,N,1,2,0,0,0,0,2,0,0,남양주시 도로관리과,031-590-1392,상시,,37.6582319944,127.3415578328,공공기관-지방자치단체,수거식,Y,여자화장실,Y,N,,,2024-05-01
개방화장실,경춘선 자전거도로(묵현리)[묵현-7],경기도 남양주시 화도읍 먹갓원터길 18,경기도 남양주시 화도읍 묵현리 360-2,N,0,1,1,1,0,0,2,1,0,남양주시 도로관리과,031-590-1395,상시,,37.6570539108,127.2814288324,공공기관-지방자치단체,수거식,Y,여자화장실,Y,Y,남자화장실+여자화장실,,2024-05-01
공중화장실,노래하는분수대,경기도 고양시 일산동구 호수로 595,경기도 고양시 일산동구 호수로 595,N,4,14,1,1,0,0,16,1,2,고양도시관리공사,031-924-5822,24시간,,37.6537546960,126.7686925095,N,N,N,N,N,N,N,,2022-04-08
공중화장실,일산소방서,경기도 고양시 일산동구 중앙로 1325,경기도 고양시 일산동구 중앙로 1325,N,6,10,3,1,0,0,2,3,0,일산소방서,,24시간,,37.6632693342,126.7696082525,N,N,N,N,N,N,N,,2022-04-08
개방화장실,경춘선 자전거도로(샛터삼거리)[구암-1],,경기도 남양주시 화도읍 구암리 66-2,N,1,2,0,0,0,0,3,0,0,남양주시 도로관리과,031-590-1395,상시,,37.6620508119,127.3701192891,공공기관-지방자치단체,수거식,Y,여자화장실,Y,N,,,2024-05-01
공중화장실,백마역,경기도 고양시 일산동구 경의로 318,"경기도 고양시 일산동구 경의로 318 (백석동, 백마역)",N,4,8,1,0,0,0,12,1,0,한국철도공사,,05:00~00:00,,37.6584091855,126.7944504435,N,N,N,N,N,N,N,,2022-04-08
공중화장실,풍산역,경기도 고양시 일산동구 경의로 486,"경기도 고양시 일산동구 경의로 486 (풍동, 풍산역)",N,4,8,1,0,0,1,12,1,0,한국철도공사,,05:00~00:00,,37.6723046673,126.7864720493,N,N,N,N,N,N,N,,2022-04-08
공중화장실,백석역,경기도 고양시 일산동구 중앙로 지하 1042,"경기도 고양시 일산동구 중앙로 지하 1042 (백석동, 백석역)",N,4,4,1,1,0,1,8,1,1,한국철도공사,,05:00~00:00,,37.6431570600,126.7881678191,N,N,N,N,N,N,N,,2022-04-08
공중화장실,마두역,,"경기도 고양시 일산동구 지하 1180 (마두동, 마두역)",N,3,4,1,1,0,1,7,1,1,한국철도공사,,05:00~00:00,,,,N,N,N,N,N,N,N,,2022-04-08
공중화장실,일산동구청 1층 화장실,경기도 고양시 일산동구 중앙로 1256,"경기도 고양시 일산동구 중앙로 1256(마두동), 1층",N,3,4,1,1,0,0,4,1,0,일산동구청 자치행정과,031-8075-6044,24시간,,37.6588678240,126.7749572412,N,N,N,N,N,N,N,,2022-04-08
공중화장실,일산동구청 2층 화장실-1,경기도 고양시 일산동구 중앙로 1256,"경기도 고양시 일산동구 중앙로 1256(마두동) , 2층",N,2,4,1,0,0,0,4,0,0,일산동구청 자치행정과,031-8075-6044,09시~18시,,37.6588678240,126.7749572412,N,N,N,N,N,N,N,,2022-04-08
공중화장실,일산동구청 2층 화장실-2,경기도 고양시 일산동구 중앙로 1256,"경기도 고양시 일산동구 중앙로 1256(마두동), 2층 소회의실 앞",N,4,4,0,1,0,0,4,1,0,일산동구청 자치행정과,031-8075-6044,09시~18시,,37.6588678240,126.7749572412,N,N,N,N,N,N,N,,2022-04-08
개방화장실,남양주시청제1청사 민원실동 2층,경기도 남양주시 경춘로 1037,경기도 남양주시 금곡동 185-10,N,5,6,0,0,0,0,5,0,0,남양주시 재산관리과,031-590-2728,정시,,37.6366920245,127.2174958647,공공기관-지방자치단체,수세식,N,,N,N,,,2024-05-01
개방화장실,남양주시청제1청사 별관동 1층,경기도 남양주시 경춘로 1037,경기도 남양주시 금곡동 185-10,N,1,1,0,0,0,0,2,0,0,남양주시 재산관리과,031-590-2728,정시,,37.6366920245,127.2174958647,공공기관-지방자치단체,수세식,N,,N,N,,,2024-05-01
공중화장실,일산동구청 4층 화장실,경기도 고양시 일산동구 중앙로 1256,"경기도 고양시 일산동구 중앙로 1256(마두동), 4층",N,3,4,0,0,0,0,4,0,0,일산동구청 자치행정과,031-8075-6044,09시~18시,,37.6588678240,126.7749572412,N,N,N,N,N,N,N,,2022-04-08
공중화장실,식사동행정복지센터 지하1층 화장실,경기도 고양시 일산동구 위시티2로11번길 22-21,"경기도 고양시 일산동구 위시티2로11번길 22-21 (식사동, 식사동주민센터), 지하1층",N,1,1,0,1,0,0,1,0,0,일산동구 식사동 행정복지센터,031-8075-6709,09시~18시,,37.6773424570,126.8137081946,N,N,N,N,N,N,N,,2022-04-08
공중화장실,일산방송COMPLEX,,"경기도 고양시 일산동구 백마로 195 (장항동, 에스케이엠시티오피스텔)",N,24,46,0,0,0,0,41,0,0,일산동구청 환경녹지과,031-8075-6243,:~:,,37.6542260855,126.7720435229,N,N,N,N,N,N,N,,2022-04-08
공중화장실,SK엠시티드라마파크빙상장,,"경기도 고양시 일산동구 백마로 195 (장항동, 에스케이엠시티오피스텔)",N,6,11,0,0,0,0,9,0,0,일산동구청 환경녹지과 청소행정팀,031-8075-6243,:~:,,37.6542260855,126.7720435229,N,N,N,N,N,N,N,,2022-04-08
공중화장실,호수공원주유소,경기도 고양시 일산동구 백마로 108,"경기도 고양시 일산동구 백마로 108 (장항동, 호수공원주유소)",N,2,1,0,0,0,0,2,0,0,일산동구청 환경녹지과 청소행정팀,031-8075-6243,:~:,,37.6479025631,126.7653832095,N,N,N,N,N,N,N,,2022-04-08
공중화장실,호수그린,,"경기도 고양시 일산동구 무궁화로 8-38 (장항동, 호수그린오피스텔)",N,5,6,0,0,0,0,5,0,0,일산동구청 환경녹지과 청소행정팀,031-8075-6243,00:00~00:00,,37.6598178476,126.7667963674,N,N,N,N,N,N,N,,2022-04-08
공중화장실,우인 2차,,"경기도 고양시 일산동구 무궁화로 7-63 (장항동, 우인아크리움빌II)",N,2,2,0,0,0,0,2,0,0,일산동구청 환경녹지과 청소행정팀,031-8075-6243,:~:,,37.6637976898,126.7647050317,N,N,N,N,N,N,N,,2022-04-08
공중화장실,성우골프클럽,,"경기도 고양시 일산동구 무궁화로 43-55 (장항동, 성우사카르타워)",N,2,3,0,0,0,0,4,0,0,일산동구청 환경녹지과 청소행정팀,031-8075-6243,:~:,,37.6644878245,126.7669771954,N,N,N,N,N,N,N,,2022-04-08
공중화장실,성우사카르타워,,"경기도 고양시 일산동구 무궁화로 43-55 (장항동, 성우사카르타워)",N,16,16,0,0,0,0,32,0,0,일산동구청 환경녹지과 청소행정팀,031-8075-6243,:~:,,37.6644878245,126.7669771954,N,N,N,N,N,N,N,,2022-04-08
공중화장실,동하넥서스,,"경기도 고양시 일산동구 무궁화로 43-33 (장항동, 동하넥서스빌)",N,21,21,0,0,0,0,21,0,0,일산동구청 환경녹지과 청소행정팀,031-8075-6043,:~:,,37.6646431533,126.7673158136,N,N,N,N,N,N,N,,2022-04-08
공중화장실,한강세이프빌,,"경기도 고양시 일산동구 무궁화로 43-15 (장항동, 한강세이프빌)",N,6,12,0,0,0,0,10,0,0,일산동구청 환경녹지과 청소행정팀,031-8075-6243,:~:,,37.6637815970,126.7679138617,N,N,N,N,N,N,N,,2022-04-08
공중화장실,우림보보카운티 1차,경기도 고양시 일산동구 무궁화로 40,"경기도 고양시 일산동구 무궁화로 40 (장항동, 일산 우림보보카운티1)",N,1,1,0,0,0,0,3,0,0,일산동구 환경녹지과,031-8075-6243,:~:,,37.6628857440,126.7687956805,N,N,N,N,N,N,N,,2022-04-08
공중화장실,우림보보카운티 2차,,"경기도 고양시 일산동구 무궁화로 32-23 (장항동, 우림보보카운티)",N,2,2,1,0,0,0,2,0,0,일산동구청 환경녹지과,031-8075-6243,00:00~00:00,,37.6618422403,126.7691233739,N,N,N,N,N,N,N,,2022-04-08
공중화장실,라페스타 쇼핑몰 E,경기도 고양시 일산동구 무궁화로 32-12,"경기도 고양시 일산동구 무궁화로 32-12 (장항동, 라페스타 E)",N,3,3,0,0,0,0,3,0,0,일산동구청 환경녹지과 청소행정팀,031-8075-6243,00:00~00:00,,37.6621060125,126.7680550338,N,N,N,N,N,N,N,,2022-04-08
공중화장실,엔담프라자,경기도 고양시 일산동구 무궁화로 31-17,"경기도 고양시 일산동구 무궁화로 31-17 (장항동, 엔담프라자)",N,10,14,0,0,0,0,14,0,0,일산동구청 환경녹지과,031-8075-6243,:~:,,37.6632258384,126.7669555920,N,N,N,N,N,N,N,,2022-04-08
공중화장실,이마트(풍산역),경기도 고양시 일산동구 무궁화로 237,경기도 고양시 일산동구 무궁화로 237 (중산동),N,14,27,0,0,0,0,24,0,0,일산동구청 환경녹지과 청소행정팀,031-8075-6243,10:00~23:00,,37.6738948112,126.7871031801,N,N,N,N,N,N,N,,2022-04-08
공중화장실,하임빌 로데오빌딩,,"경기도 고양시 일산동구 무궁화로 20-18 (장항동, 하임빌로데오빌딩)",N,14,15,0,0,0,0,15,0,0,일산동구청 환경녹지과 청소행정팀,031-8075-6243,:~:,,37.6613171228,126.7672918171,N,N,N,N,N,N,N,,2022-04-08
공중화장실,한라밀라트A동,,"경기도 고양시 일산동구 무궁화로 17 (장항동, 한라밀라트)",N,2,4,0,0,0,0,5,0,0,일산동구청 환경녹지과 청소행정팀,031-8075-6243,:~:,,37.6621949394,126.7664101767,N,N,N,N,N,N,N,,2022-04-08
공중화장실,더불어충전소,경기도 고양시 일산동구 고봉로 672,"경기도 고양시 일산동구 고봉로 672 (성석동, 성석동더불어가스충전소)",N,2,2,0,0,0,0,3,0,0,일산동구청 환경녹지과 청소행정팀,031-8075-6043,:~:,,37.7167477805,126.7893023556,N,N,N,N,N,N,N,,2022-04-08
공중화장실,(주)중산힐스(청소년수련관),경기도 고양시 일산동구 고봉로 467-68,경기도 고양시 일산동구 고봉로 467-68 (성석동),N,9,17,0,0,0,0,14,0,0,일산동구청 환경녹지과 청소행정팀,031-8075-6243,:~:,,37.7008161265,126.7780313719,N,N,N,N,N,N,N,,2022-04-08
공중화장실,(주)중산힐스(골프연습장),경기도 고양시 일산동구 고봉로 467-57,경기도 고양시 일산동구 고봉로 467-57 (성석동),N,12,29,0,0,0,0,23,0,0,일산동구청 환경녹지과 청소행정팀,031-8075-6243,:~:,,37.7004702556,126.7789535625,N,N,N,N,N,N,N,,2022-04-08
공중화장실,라페스타 쇼핑몰 C1,경기도 고양시 일산동구 무궁화로 32-34,"경기도 고양시 일산동구 무궁화로 32-34 (장항동, 라페스타C)",N,3,7,0,0,0,0,5,0,0,일산동구 환경녹지과,031-8075-6243,:~:,,37.6613265499,126.7688109747,N,N,N,N,N,N,N,,2022-04-08
공중화장실,정안프라자,경기도 고양시 일산동구 고봉로 32-36,"경기도 고양시 일산동구 고봉로 32-36 (장항동, 정안프라자)",N,8,13,0,0,0,0,14,0,0,일산동구청 환경녹지과 청소행정팀,031-8075-6243,:~:,,37.6635393793,126.7666463819,N,N,N,N,N,N,N,,2022-04-08
공중화장실,한라밀라트 C동,,"경기도 고양시 일산동구 무궁화로 12 (장항동, 한라밀라트)",N,1,1,0,0,0,0,1,0,0,일산동구청 환경녹지과 청소행정팀,031-8075-6243,:~:,,37.6614107659,126.7664065560,N,N,N,N,N,N,N,,2022-04-08
공중화장실,한라밀라트B동,,"경기도 고양시 일산동구 무궁화로 11 (장항동, 한라밀라트)",N,1,1,0,0,0,0,1,0,0,일산동구청 환경녹지과 청소행정팀,031-8075-6243,:~:,,37.6618944881,126.7659256092,N,N,N,N,N,N,N,,2022-04-08
공중화장실,백마골프타운,경기도 고양시 일산동구 고풍로43번길 48,경기도 고양시 일산동구 고풍로43번길 48 (풍동),N,12,16,0,0,0,0,17,0,0,일산동구청 환경녹지과 청소행정팀,031-8075-6243,:~:,,37.6606152712,126.7940894367,N,N,N,N,N,N,N,,2022-04-08
공중화장실,창일주유소,경기도 고양시 일산동구 고양대로 910,"경기도 고양시 일산동구 고양대로 910 (풍동, 창일주유소)",N,1,2,0,0,0,0,2,0,0,일산동구청 환경녹지과 청소행정팀,031-8075-6243,:~:,,37.6776348180,126.7960261400,N,N,N,N,N,N,N,,2022-04-08
공중화장실,중산주유소,경기도 고양시 일산동구 고양대로 756,"경기도 고양시 일산동구 고양대로 756 (중산동, 중산주유소)",N,0,2,0,0,0,0,1,0,0,일산동구청 환경녹지과,031-8075-6243,:~:,,37.6820797846,126.7798460911,N,N,N,N,N,N,N,,2022-04-08
공중화장실,제19주유소,경기도 고양시 일산동구 고양대로 1064,"경기도 고양시 일산동구 고양대로 1064 (식사동, 제19주유소)",N,2,2,0,0,0,0,2,0,0,일산동구청 환경녹지과 청소행정팀,031-8075-6243,:~:,,37.6697902672,126.8092308095,N,N,N,N,N,N,N,,2022-04-08
공중화장실,형진에너지,경기도 고양시 일산동구 고봉로819번길 8,경기도 고양시 일산동구 고봉로819번길 8 (설문동),N,0,0,0,0,0,0,0,0,0,일산동구청 환경녹지과 청소행정팀,031-8075-6243,:~:,,37.7263817823,126.7981522226,N,N,N,N,N,N,N,,2022-04-08
공중화장실,은곡주유소,경기도 고양시 일산동구 고봉로 719,"경기도 고양시 일산동구 고봉로 719 (설문동, 장군주유소)",N,1,2,0,0,0,0,1,0,0,일산동구청 환경녹지과 청소행정팀,031-8075-6243,:~:,,37.7210450976,126.7889776293,N,N,N,N,N,N,N,,2022-04-08
공중화장실,코오롱레이크폴리스3 B동,,"경기도 고양시 일산동구 고봉로 20-32 (장항동, 코오롱레이크폴리스III)",N,3,4,0,0,0,0,2,0,0,일산동구청 환경녹지과 청소행정팀,031-8075-6243,:~:,,37.6627561052,126.7653388910,N,N,N,N,N,N,N,,2022-04-08
공중화장실,코오롱레이크폴리스3 A동,,"경기도 고양시 일산동구 고봉로 20-26 (장항동, 코오롱레이크폴리스III)",N,3,4,0,0,0,0,2,0,0,일산동구청 환경녹지과 청소행정팀,031-8075-6243,:~:,,37.6631772287,126.7649379116,N,N,N,N,N,N,N,,2022-04-08
공중화장실,일산빌딩,경기도 고양시 일산동구 경의로 471,"경기도 고양시 일산동구 경의로 471 (정발산동, 일산빌딩)",N,10,16,0,0,0,0,16,0,0,일산동구청 환경녹지과 청소행정팀,031-8075-6243,:~:,,37.6708320283,126.7858965145,N,N,N,N,N,N,N,,2022-04-08
공중화장실,현대밀라트 A동,,"경기도 고양시 일산동구 경의로 47 (백석동, 현대밀라트)",N,2,4,0,0,0,0,5,0,0,일산동구청 환경녹지과 청소행정팀,031-8075-6243,:~:,,37.6397959053,126.7912941901,N,N,N,N,N,N,N,,2022-04-08
공중화장실,현대밀라트B동,,"경기도 고양시 일산동구 경의로 33 (백석동, 현대밀라트)",N,2,4,0,0,0,0,5,0,0,일산동구청 환경녹지과 청소행정팀,031-8075-6243,:~:,,37.6391332052,126.7905070824,N,N,N,N,N,N,N,,2022-04-08
공중화장실,현대밀라트 C동,,"경기도 고양시 일산동구 경의로 19 (백석동, 현대밀라트)",N,2,4,0,0,0,0,5,0,0,일산동구청 환경녹지과 청소행정팀,031-8075-6243,:~:,,37.6380438286,126.7892140133,N,N,N,N,N,N,N,,2022-04-08
공중화장실,그린골프랜드,,"경기도 고양시 일산동구 견달산로 69 (식사동, 그린골프랜드)",N,6,11,0,0,0,0,9,0,0,일산동구청 환경녹지과 청소행정팀,031-8075-6243,:~:,,,,N,N,N,N,N,N,N,,2022-04-08
공중화장실,백석배드민턴장,경기도 고양시 일산동구 강석로 15,경기도 고양시 일산동구 강석로 15 (백석동),N,9,17,0,0,0,0,14,0,0,일산동구청 환경녹지과 청소행정팀,031-8075-6243,:~:,,37.6446743971,126.7871898497,N,N,N,N,N,N,N,,2022-04-08
공중화장실,라페스타 쇼핑몰 A,경기도 고양시 일산동구 중앙로1275번길 38-31,"경기도 고양시 일산동구 중앙로1275번길 38-31 (장항동, 라페스타 A)",N,3,3,0,0,0,0,3,0,0,일산동구청 환경녹지과 청소행정팀,031-8075-6243,05:00~00:00,,37.6604752616,126.7696129537,N,N,N,N,N,N,N,,2022-04-08
공중화장실,마두도서관,경기도 고양시 일산동구 일산로 355,경기도 고양시 일산동구 일산로 355,N,11,16,4,4,0,0,11,4,0,마두도서관,,15,,37.6666808080,126.7820811961,N,N,N,N,N,N,N,,2022-04-08
공중화장실,백석도서관,경기도 고양시 일산동구 일산로 118,경기도 고양시 일산동구 일산로 118,N,14,10,1,4,1,1,14,1,1,백석도서관,,15,,37.6472188037,126.7936268007,N,N,N,N,N,N,N,,2022-04-08
공중화장실,식사도서관,경기도 고양시 일산동구 위시티2로 43-6,경기도 고양시 일산동구 위시티2로 43-6,N,8,11,1,0,1,1,17,1,2,식사도서관,,15,,37.6760934526,126.8159196528,N,N,N,N,N,N,N,,2022-04-08
공중화장실,광장화장실,경기도 고양시 일산동구 호수로 731,경기도 고양시 일산동구 호수로 731,N,7,7,1,0,1,0,16,1,1,고양시 공원관리과,031-8075-4350,24시간,,37.6644650844,126.7604466371,N,N,N,N,N,N,N,,2022-04-08
공중화장실,장미화장실,경기도 고양시 일산동구 호수로 731,경기도 고양시 일산동구 호수로 731,N,3,5,1,0,0,0,17,1,0,고양시 공원관리과,031-8075-4350,24시간,,37.6644650844,126.7604466371,N,N,N,N,N,N,N,,2022-04-08
공중화장실,회화나무화장실,경기도 고양시 일산동구 호수로 731,경기도 고양시 일산동구 호수로 731,N,2,3,1,0,0,0,9,1,0,고양시 공원관리과,031-8075-4350,24시간,,37.6644650844,126.7604466371,N,N,N,N,N,N,N,,2022-04-08
공중화장실,두루미화장실,경기도 고양시 일산동구 호수로 731,경기도 고양시 일산동구 호수로 731,N,3,7,1,0,0,0,9,1,0,고양시 공원관리과,031-8075-4350,24시간,,37.6644650844,126.7604466371,N,N,N,N,N,N,N,,2022-04-08
공중화장실,악어화장실,경기도 고양시 일산동구 호수로 731,경기도 고양시 일산동구 호수로 731,N,3,3,1,0,1,0,7,1,1,고양시 공원관리과,031-8075-4350,24시간,,37.6644650844,126.7604466371,N,N,N,N,N,N,N,,2022-04-08
공중화장실,폭포화장실,경기도 고양시 일산동구 호수로 731,경기도 고양시 일산동구 호수로 731,N,2,4,1,0,0,0,15,1,0,고양시 공원관리과,031-8075-4350,24시간,,37.6644650844,126.7604466371,N,N,N,N,N,N,N,,2022-04-08
공중화장실,백석공원(교통공원),경기도 고양시 일산동구 강송로 14,경기도 고양시 일산동구 강송로 14,N,3,3,0,0,0,0,0,0,0,고양시 공원관리과,031-8075-4337,24시간,,37.6424792469,126.7953719093,N,N,N,N,N,N,N,,2022-04-08
공중화장실,알미공원,경기도 고양시 일산동구 중앙로 1087-2,경기도 고양시 일산동구 중앙로 1087-2,N,3,4,0,0,0,0,6,0,0,고양시 공원관리과,031-8075-4337,24시간,,37.6455019630,126.7839400471,N,N,N,N,N,N,N,,2022-04-08
공중화장실,마두공원,경기도 고양시 일산동구 강송로 176-3,"경기도 고양시 일산동구 강송로 176-3, 마두공원개방화장실 (마두동)",N,1,2,0,0,0,0,3,0,0,고양시 공원관리과,031-8075-4337,24시간,,37.6546897883,126.7844866766,N,N,N,N,N,N,N,,2022-04-08
공중화장실,낙민공원,경기도 고양시 일산동구 호수로 530-2,경기도 고양시 일산동구 호수로 530-2,N,1,1,0,0,0,0,1,0,0,고양시 공원관리과,031-8075-4337,24시간,,37.6501131513,126.7730358954,N,N,N,N,N,N,N,,2022-04-08
공중화장실,일산문화공원,경기도 고양시 일산동구 중앙로 1271-1,경기도 고양시 일산동구 중앙로 1271-1,N,1,1,0,0,0,0,1,0,0,고양시 공원관리과,031-8075-4337,24시간,,37.6594848240,126.7726950956,N,N,N,N,N,N,N,,2022-04-08
공중화장실,정발산공원(청사인근),경기도 고양시 일산동구 햇살로 56,경기도 고양시 일산동구 햇살로 56,N,4,8,1,1,0,0,7,1,0,고양시 공원관리과,031-8075-4337,24시간,,37.6648999985,126.7768033912,N,N,N,N,N,N,N,,2022-04-08
공중화장실,정발산공원(체육공원),경기도 고양시 일산동구 일산로 355,경기도 고양시 일산동구 일산로 355,N,0,2,1,0,0,0,2,1,0,고양시 공원관리과,031-8075-4337,24시간,,37.6666808080,126.7820811961,N,N,N,N,N,N,N,,2022-04-08
공중화장실,은행마을공원,,경기도 고양시 일산동구 은행마을로 100,N,1,1,0,0,0,0,2,0,0,고양시 공원관리과,031-8075-4337,24시간,,37.6713465140,126.8071753208,N,N,N,N,N,N,N,,2022-04-08
공중화장실,달맞이공원,경기도 고양시 일산동구 숲속마을2로 71-2,경기도 고양시 일산동구 풍동 1228,N,1,1,0,0,0,0,2,0,0,고양시 공원관리과,031-8075-4337,24시간,,37.6746348080,126.8008058334,N,N,N,N,N,N,N,,2022-04-08
공중화장실,성아공원,경기도 고양시 일산동구 하늘마을1로 56-2,경기도 고양시 일산동구 하늘마을1로 56-2,N,3,3,0,0,0,0,6,0,0,고양시 공원관리과,031-8075-4337,24시간,,37.6776310168,126.7893808274,N,N,N,N,N,N,N,,2022-04-08
공중화장실,A구장 화장실,경기도 남양주시 다산지금로 91,경기도 남양주시 이패동 산87,N,6,6,1,0,0,0,8,1,0,남양주체육문화센터,031-560-1258,정시,,37.6054975037,127.1758197051,공공기관-지방공공기관(지방공기업/지방출자출연기관),수세식,N,,N,N,,,2024-05-01
공중화장실,CM타워 화장실(민간개방화장실),경기도 남양주시 경춘로1308번길 2 (평내동),경기도 남양주시 평내동 200-4,N,2,3,1,0,0,0,2,0,0,관리사무소,031-000-0000,상시,,37.6498998129,127.2383950563,민간소유-개인,수세식,N,,N,N,,,2024-05-01
공중화장실,어침이공원,경기도 고양시 일산동구 위시티로 149,경기도 고양시 일산동구 위시티로 149 (식사동),N,1,3,1,0,0,0,5,1,0,고양시 공원관리과,031-8075-4337,24시간,,37.6853735624,126.8122165278,N,N,N,N,N,N,N,,2022-04-08
공중화장실,식사중앙공원,경기도 고양시 일산동구 위시티3로 44-2,경기도 고양시 일산동구 위시티3로 44-2,N,2,3,0,0,0,0,4,1,0,고양시 공원관리과,031-8075-4337,24시간,,37.6775701505,126.8141143439,N,N,N,N,N,N,N,,2022-04-08
공중화장실,하늘장미어린이공원,,경기도 고양시 일산동구 하늘마을로 94,N,2,3,0,0,0,0,4,0,0,일산동구 환경녹지과 녹지관리팀,031-8075-6266,24시간,,37.6803743993,126.7824935961,N,N,N,N,N,N,N,,2022-04-08
공중화장실,모범어린이공원,경기도 고양시 일산동구 백마로 318-4,경기도 고양시 일산동구 백마로 318-4,N,1,1,1,1,0,0,1,1,0,일산동구 환경녹지과 녹지관리팀,031-8075-6266,24시간,,37.6556716809,126.7858830221,N,N,N,N,N,N,N,,2022-04-08
공중화장실,향나무어린이공원,경기도 고양시 일산동구 호수로430번길 29-14,경기도 고양시 일산동구 호수로430번길 29-14,N,1,1,1,1,0,0,1,1,0,고양시 일산동구청 환경녹지과 녹지관리팀,031-8075-6266,24시간,,37.6445773733,126.7801176423,N,N,N,N,N,N,N,,2022-04-08
공중화장실,청천어린이공원,경기도 고양시 일산동구 백석로 169-3,경기도 고양시 일산동구 백석로 169-3,N,1,1,1,1,0,0,1,1,0,고양시 일산동구청 환경녹지과 녹지관리팀,031-8075-6266,24시간,,37.6525145800,126.7944608747,N,N,N,N,N,N,N,,2022-04-08
공중화장실,백송어린이공원,경기도 고양시 일산동구 강송로 120-3,경기도 고양시 일산동구 강송로 120-3,N,1,1,1,1,0,0,2,1,0,고양시 일산동구청 환경녹지과 녹지관리팀,031-8075-6266,24시간,,37.6507432035,126.7891610058,N,N,N,N,N,N,N,,2022-04-08
공중화장실,부촌어린이공원,경기도 고양시 일산동구 강송로 120-3,경기도 고양시 일산동구 강송로 120-3,N,1,1,1,1,0,0,1,1,0,고양시 일산동구청 환경녹지과 녹지관리팀,031-8075-6266,24시간,,37.6507432035,126.7891610058,N,N,N,N,N,N,N,,2022-04-08
공중화장실,벚나무어린이공원,경기도 고양시 일산동구 숲속마을로 50-9,경기도 고양시 일산동구 숲속마을로 50-9,N,2,1,1,1,0,0,2,1,0,고양시 일산동구청 환경녹지과 녹지관리팀,031-8075-6266,24시간,,37.6677559080,126.7974687678,N,N,N,N,N,N,N,,2022-04-08
공중화장실,소나무어린이공원,,경기도 고양시 일산동구 숲속마을로 49-6,N,2,1,1,1,0,0,2,1,0,고양시 일산동구청 환경녹지과 녹지관리팀,031-8075-6266,24시간,,,,N,N,N,N,N,N,N,,2022-04-08
공중화장실,목련어린이공원,경기도 고양시 일산동구 숲속마을2로 146,경기도 고양시 일산동구 숲속마을2로 146,N,1,1,1,1,0,0,2,1,0,고양시 일산동구청 환경녹지과 녹지관리팀,031-8075-6266,24시간,,37.6728136010,126.7976818935,N,N,N,N,N,N,N,,2022-04-08
공중화장실,참나무어린이공원,경기도 고양시 일산동구 숲속마을1로48번길 47-8,경기도 고양시 일산동구 숲속마을1로 48번길 47-8,N,2,1,1,1,0,0,2,1,0,고양시 일산동구청 환경녹지과 녹지관리팀,031-8075-6266,24시간,,37.6660452029,126.8008070518,N,N,N,N,N,N,N,,2022-04-08
공중화장실,방기어린이공원,경기도 고양시 일산동구 강송로113번길 36-14,경기도 고양시 일산동구 강송로113번길 36-14,N,1,1,1,1,0,0,1,1,0,고양시 일산동구청 환경녹지과 녹지관리팀,031-8075-6266,24시간,,37.6485356059,126.7847951101,N,N,N,N,N,N,N,,2022-04-08
공중화장실,말머리어린이공원,경기도 고양시 일산동구 강석로 132-4,경기도 고양시 일산동구 강석로 132-4,N,1,2,1,0,0,0,3,1,0,일산동구 환경녹지과 녹지관리팀,031-8075-6266,24시간,,37.6527804447,126.7817615895,N,N,N,N,N,N,N,,2022-04-08
공중화장실,장항어린이공원,,경기도 고양시 일산동구 정발산동 812,N,1,1,1,1,0,0,2,1,0,고양시 일산동구청 환경녹지과 녹지관리팀,031-8075-6266,24시간,,37.6662655595,126.7754884934,N,N,N,N,N,N,N,,2022-04-08
공중화장실,두루미어린이공원,경기도 고양시 일산동구 일산로441번길 52-2,경기도 고양시 일산동구 일산로441번길 52-2,N,2,2,1,0,0,0,3,1,0,고양시 일산동구청 환경녹지과 녹지관리팀,031-8075-6266,24시간,,37.6714306507,126.7761617151,N,N,N,N,N,N,N,,2022-04-08
공중화장실,수정어린이공원,경기도 고양시 일산동구 무궁화로148번길 33-2,경기도 고양시 일산동구 무궁화로 148번길 33-2,N,1,1,1,1,0,0,2,1,0,고양시 일산동구청 환경녹지과 녹지관리팀,031-8075-6266,24시간,,37.6682817164,126.7785620995,N,N,N,N,N,N,N,,2022-04-08
공중화장실,밤가시어린이공원,경기도 고양시 일산동구 일산로380번길 20-2,경기도 고양시 일산동구 일산로 380번길 20-2,N,1,1,1,1,0,0,3,1,0,고양시 일산동구청 환경녹지과 녹지관리팀,031-8075-6266,24시간,,37.6694782634,126.7826325335,N,N,N,N,N,N,N,,2022-04-08
공중화장실,중산오름어린이공원,경기도 고양시 일산동구 탄중로 337-2,경기도 고양시 일산동구 중산동 1575-1,N,2,2,0,1,0,0,2,2,0,고양시 일산동구청 환경녹지과 녹지관리팀,031-8075-6266,24시간,,37.6929314668,126.7827695996,N,N,N,N,N,N,N,,2022-04-08
공중화장실,올림푸스어린이공원,,경기도 고양시 일산동구 위시티4로 79,N,1,2,1,0,0,0,4,1,0,고양시 일산동구청 환경녹지과 녹지관리팀,031-8075-6266,24시간,,37.6801336565,126.8116638582,N,N,N,N,N,N,N,,2022-04-08
공중화장실,간이어린이공원,경기도 고양시 일산동구 백석로72번길 31-12,경기도 고양시 일산동구 백석로72번길 31-12,N,1,1,1,1,0,0,2,1,0,고양시 일산동구청 환경녹지과 녹지관리팀,031-8075-6266,24시간,,37.6461574841,126.7880031601,N,N,N,N,N,N,N,,2022-04-08
공중화장실,능안어린이공원,경기도 고양시 일산동구 일산로297번길 68-2,경기도 고양시 일산동구 일산로 297번길 68-2,N,1,1,1,1,0,0,2,1,0,일산동구 환경녹지과 녹지관리팀,031-8075-6266,24시간,,37.6599034059,126.7836543536,N,N,N,N,N,N,N,,2022-04-08
공중화장실,장항야구장,,경기도 고양시 일산동구 장항동 660-35,N,1,3,0,0,0,0,3,0,0,고양도시관리공사,031-970-2175,24시간,,37.6465512708,126.7443204948,N,N,N,N,N,N,N,,2022-04-08
공중화장실,지영동체육공원,,경기도 고양시 일산동구 통일로 1267번길 1440-40,N,2,4,1,0,0,0,6,1,0,고양도시관리공사,031-970-2175,24시간,,,,N,N,N,N,N,N,N,,2022-04-08
공중화장실,크리스탈빌딩 장항동,경기도 고양시 일산동구 중앙로1275번길 60-21,"경기도 고양시 일산동구 중앙로1275번길 60-21 (장항동, 크리스탈빌딩)",N,28,30,0,0,0,0,28,0,0,일산동구청 환경녹지과,031-8075-6243,:~:,,37.6597853105,126.7688147542,N,N,N,N,N,N,N,,2022-04-08
공중화장실,엔조이쓰리칼라,경기도 고양시 일산동구 중앙로1275번길 60-14,"경기도 고양시 일산동구 중앙로1275번길 60-14 (장항동, 고일프라자)",N,4,4,0,0,0,0,4,0,0,일산동구청 환경녹지과 청소행정팀,031-8075-6243,:~:,,37.6595471653,126.7696560589,N,N,N,N,N,N,N,,2022-04-08
공중화장실,우림로데오스위트,경기도 고양시 일산동구 중앙로1275번길 14-25,"경기도 고양시 일산동구 중앙로1275번길 14-25 (장항동, 우림로데오스위트)",N,9,12,0,0,0,0,14,0,0,일산동구청 환경녹지과 청소행정팀,031-8075-6243,:~:,,37.6601530100,126.7714301128,N,N,N,N,N,N,N,,2022-04-08
공중화장실,하이베라스,,"경기도 고양시 일산동구 중앙로1261번길 79 (장항동, 하이베라스)",N,15,23,0,0,0,0,15,0,0,일산동구청 환경녹지과,031-8075-6243,:~:,,37.6569621372,126.7699421337,N,N,N,N,N,N,N,,2022-04-08
공중화장실,호수광장빌딩,경기도 고양시 일산동구 중앙로1261번길 19,"경기도 고양시 일산동구 중앙로1261번길 19 (장항동, 호수광장빌딩)",N,7,11,0,0,0,0,14,0,0,일산동구청 환경녹지과,031-8075-6243,:~:,,37.6582588178,126.7726617072,N,N,N,N,N,N,N,,2022-04-08
공중화장실,쌍용플레티넘,,"경기도 고양시 일산동구 중앙로 1347 (장항동, 일산쌍용플래티넘오피스텔)",N,2,1,0,0,0,0,2,0,0,일산동구청 환경녹지과 청소행정팀,031-8075-6243,:~:,,37.6649802830,126.7679020883,N,N,N,N,N,N,N,,2022-04-08
공중화장실,청원레이크빌,,"경기도 고양시 일산동구 중앙로 1341 (장항동, 청원레이크빌)",N,2,3,0,0,0,0,2,0,0,일산동구청 환경녹지과 청소행정팀,031-8075-6243,:~:,,37.6646494873,126.7683361888,N,N,N,N,N,N,N,,2022-04-08
공중화장실,현대휘트니스센타,,"경기도 고양시 일산동구 중앙로 1322 (정발산동, 일산현대아이스페이스)",N,7,20,0,0,0,0,12,0,0,일산동구청 환경녹지과 청소행정팀,031-8075-6243,:~:,,37.6636912131,126.7707832758,N,N,N,N,N,N,N,,2022-04-08
공중화장실,허유재병원,경기도 고양시 일산동구 중앙로 1317,경기도 고양시 일산동구 중앙로 1317 (장항동),N,12,12,0,0,0,0,23,0,0,일산동구청 환경녹지과 청소행정팀,031-8075-6243,:~:,,37.6629288877,126.7699403885,N,N,N,N,N,N,N,,2022-04-08
공중화장실,위너스 21 2차,경기도 고양시 일산동구 호수로 646-24,"경기도 고양시 일산동구 호수로 646-24 (장항동, 위너스21 II)",N,16,16,0,0,0,0,23,0,0,일산동구청 환경녹지과 청소행정팀,031-8075-6243,:~:,,37.6597070909,126.7678291639,N,N,N,N,N,N,N,,2022-04-08
공중화장실,일신프라자,경기도 고양시 일산동구 탄중로 325-15,"경기도 고양시 일산동구 탄중로 325-15 (중산동, 일신프라자)",N,7,8,0,0,0,0,9,0,0,일산동구청 환경녹지과 청소행정팀,031-8075-6243,:~:,,37.6940307701,126.7812390918,N,N,N,N,N,N,N,,2022-04-08
공중화장실,중앙 하이츠빌,경기도 고양시 일산동구 중앙로1275번길 86-1,"경기도 고양시 일산동구 중앙로1275번길 86-1 (장항동, 중앙 하이츠빌)",N,3,6,0,0,0,0,3,0,0,일산동구청 환경녹지과 청소행정팀,031-8075-6243,:~:,,37.6586345814,126.7678396970,N,N,N,N,N,N,N,,2022-04-08
공중화장실,에메랄드빌딩,경기도 고양시 일산동구 중앙로1275번길 60-31,"경기도 고양시 일산동구 중앙로1275번길 60-31 (장항동, 에메랄드빌딩)",N,12,18,0,0,0,0,12,0,0,일산동구청 환경녹지과,031-8075-6243,00:00~00:00,,37.6601437092,126.7684711137,N,N,N,N,N,N,N,,2022-04-08
공중화장실,라페스타 쇼핑몰 D,경기도 고양시 일산동구 중앙로 1305-56,"경기도 고양시 일산동구 중앙로 1305-56 (장항동, 라페스타 D)",N,3,3,0,0,0,0,3,0,0,일산동구청 환경녹지과 청소행정팀,031-8075-6243,05:00~02:00,,37.6610260381,126.7683150660,N,N,N,N,N,N,N,,2022-04-08
공중화장실,마이다스 오피스텔,,"경기도 고양시 일산동구 중앙로 1305-30 (장항동, 마이다스 오피스텔)",N,3,3,0,0,0,0,3,0,0,일산동구청 환경녹지과 청소행정팀,031-8075-6243,:~:,,37.6615301670,126.7696706442,N,N,N,N,N,N,N,,2022-04-08
공중화장실,현대타운빌,,"경기도 고양시 일산동구 중앙로 1233 (장항동, 현대타운빌)",N,4,6,0,0,0,0,5,0,0,일산동구청 환경녹지과 청소행정팀,031-8075-6243,:~:,,37.6564853341,126.7744702474,N,N,N,N,N,N,N,,2022-04-08
공중화장실,뉴코아(일산점),경기도 고양시 일산동구 중앙로 1206,"경기도 고양시 일산동구 중앙로 1206 (마두동, 뉴코아백화점일산점)",N,15,19,0,0,0,0,11,0,0,일산동구청 환경녹지과 청소행정팀,031-8075-6243,10:30~22:00,,37.6545799678,126.7768241412,N,N,N,N,N,N,N,,2022-04-08
공중화장실,(주)모아나빌딩,경기도 고양시 일산동구 중앙로 1201,"경기도 고양시 일산동구 중앙로 1201 (장항동, 모아나빌딩)",N,2,1,0,0,0,0,2,0,0,일산동구청 환경녹지과 청소행정팀,031-8075-6243,06:00~22:00,,37.6537561958,126.7762426304,N,N,N,N,N,N,N,,2022-04-08
공중화장실,형지 제3빌딩,경기도 고양시 일산동구 중앙로 1197,"경기도 고양시 일산동구 중앙로 1197 (장항동, 형지 제3빌딩)",N,16,20,0,0,0,0,15,0,0,일산동구청 환경녹지과 청소행정팀,031-8075-6243,:~:,,37.6534328509,126.7764271528,N,N,N,N,N,N,N,,2022-04-08
공중화장실,일산올림픽 스포츠센터,경기도 고양시 일산동구 중앙로 1182,"경기도 고양시 일산동구 중앙로 1182 (마두동, 올림픽스포츠센터)",N,4,3,0,0,0,0,3,0,0,일산동구청 환경녹지과 청소행정팀,031-8075-6243,05:30~10:30,,37.6526140296,126.7781242173,N,N,N,N,N,N,N,,2022-04-08
공중화장실,동양생명보험,경기도 고양시 일산동구 중앙로 1165,경기도 고양시 일산동구 중앙로 1165 (장항동),N,16,24,0,0,0,0,16,0,0,일산동구청 환경녹지과,031-8075-6243,:~:,,37.6508192501,126.7779375414,N,N,N,N,N,N,N,,2022-04-08
공중화장실,GS 항공대 주유소,경기도 고양시 덕양구 중앙로 171,경기도 고양시 덕양구 화전동 575-6,N,2,2,0,0,0,0,2,0,0,민간,02-3158-0900,05:00~23:00,,37.6028261764,126.8696441402,N,N,N,N,N,N,N,,2022-04-08
공중화장실,REMEMBER 1910 지하 1층 화장실,경기도 남양주시 경춘로 946(금곡동),경기도 남양주시 금곡동 434-5,N,1,2,1,1,1,0,6,1,1,남양주시 문화예술과,031-590-7327,정시,,37.6328168573,127.2066643226,공공기관-지방자치단체,수세식,N,,Y,N,,,2024-05-01
개방화장실,가남프라자 화장실(민간개방화장실),경기도 남양주시 경춘로 1293 (평내동),경기도 남양주시 평내동 205-1,N,2,4,0,0,0,0,2,0,0,관리사무소,031-000-0000,상시,,37.6497153834,127.2365252418,민간소유-개인,수세식,N,,N,N,,,2024-05-01
개방화장실,가운테니스장[다산-6],,경기도 남양주시 다산동 739,N,2,3,1,0,0,0,5,1,0,남양주시 공원관리과,031-590-2855,상시,,37.5964753973,127.1614664102,공공기관-지방자치단체,수세식,N,,N,N,,,2024-05-01
개방화장실,가족쉼터 사무실[내방-2],,경기도 남양주시 외방리 237-1,N,2,2,0,0,0,0,2,0,0,남양주시 문화관광과,031-590-2114,정시,,,,공공기관-지방자치단체,수거식,N,,Y,N,,,2024-05-01
개방화장실,강변편의점(민간개방화장실),경기도 남양주시 조안면 다산로526번길 8-34,경기도 남양주시 조안면 능내리 171-2,N,1,1,0,0,0,0,0,0,0,관리사무소,031-000-0000,정시,,37.5218943424,127.2902999853,민간소유-개인,수세식,N,,N,N,,,2024-05-01
개방화장실,경관광장[장현-8],,경기도 남양주시 진접읍 장현리 240,N,2,2,1,0,0,0,4,1,0,남양주시 생태하천과,031-590-8770,상시,,37.7220240690,127.1910030386,공공기관-지방자치단체,수거식,N,,Y,N,,,2024-05-01
개방화장실,경기시청자미디어센터 1층,경기도 남양주시 다산중앙로82번안길 146,경기도 남양주시 다산동 3209-2,N,2,2,1,1,0,0,5,1,0,남양주시 홍보기획과,031-590-4207,정시,,37.6124435044,127.1681188396,공공기관-지방자치단체,수세식,N,,N,N,,,2024-05-01
공중화장실,LPG(GS) 충전소,경기도 고양시 덕양구 중앙로 279,경기도 고양시 덕양구 화전동 757-6,N,2,2,0,0,0,0,2,0,0,민간,02-3159-8118,00:00~24:00,,37.6092777174,126.8608883758,N,N,N,N,N,N,N,,2022-04-08
개방화장실,경기시청자미디어센터 3층,경기도 남양주시 다산중앙로82번안길 146,경기도 남양주시 다산동 3209-2,N,2,2,1,1,0,0,6,1,0,남양주시 홍보기획과,031-590-4207,정시,,37.6124435044,127.1681188396,공공기관-지방자치단체,수세식,N,,N,Y,여자화장실,,2024-05-01
공중화장실,상암에너지,경기도 고양시 덕양구 자유로 40,경기도 고양시 덕양구 덕은동425-97,N,2,3,0,0,0,0,2,0,0,민간,02-3158-0030,00:00~24:00,,37.5792819620,126.8593667954,N,N,N,N,N,N,N,,2022-04-08
공중화장실,덕양주유소,경기도 고양시 덕양구 충장로 142,경기도 고양시 덕양구 행신동942,N,1,2,0,0,0,0,2,0,0,민간,031-979-8426,6:00~24:00,,37.6249560470,126.8355286607,N,N,N,N,N,N,N,,2022-04-08
공중화장실,흥도동주민센터 화장실 1층,경기도 고양시 덕양구 흥도로454번길 44,"경기도 고양시 덕양구 흥도로454번길 44 (성사동, 흥도동주민센터)",N,2,3,0,0,0,0,2,0,0,흥도동주민센터,031-8075-5753,9:00~18:00,,37.6449709369,126.8543482789,N,N,N,N,N,N,N,,2022-04-08
공중화장실,흥도동주민센터 화장실 2층,경기도 고양시 덕양구 흥도로454번길 44,"경기도 고양시 덕양구 흥도로454번길 44 (성사동, 흥도동주민센터)",N,2,3,0,0,0,0,3,0,0,흥도동주민센터,031-8075-5753,9:00~18:00,,37.6449709369,126.8543482789,N,N,N,N,N,N,N,,2022-04-08
공중화장실,롯데마트화장실,경기도 고양시 덕양구 화중로 66,"경기도 고양시 덕양구 화중로 66 (화정동, 롯데마트)",N,5,8,0,0,0,0,8,0,0,고양시 덕양구 환경녹지과,031-8075-5753,10:00~23:00,,37.6329529662,126.8311167607,N,N,N,N,N,N,N,,2022-04-08
공중화장실,화정1동주민센터 화장실 1층,경기도 고양시 덕양구 화중로 197,"경기도 고양시 덕양구 화중로 197 (화정동, 화정1동주민센터)",N,2,2,0,0,0,0,2,0,0,화정1동주민센터,031-8075-5753,9:00~18:00,,37.6446745654,126.8334714003,N,N,N,N,N,N,N,,2022-04-08
공중화장실,화정1동주민센터 화장실 2층,경기도 고양시 덕양구 화중로 197,"경기도 고양시 덕양구 화중로 197 (화정동, 화정1동주민센터)",N,2,2,0,0,0,0,2,0,0,화정1동주민센터,031-8075-5753,9:00~18:00,,37.6446745654,126.8334714003,N,N,N,N,N,N,N,,2022-04-08
공중화장실,화정역광장,경기도 고양시 덕양구 화정로 지하 63,경기도 고양시 덕양구 화정로 지하 63,N,2,3,1,0,0,0,4,1,0,덕양구 환경녹지과,031-8075-5245,00:00~24:00,,37.6349468278,126.8330482872,N,N,N,N,N,N,N,,2022-04-08
공중화장실,세이브존화정 화장실1,경기도 고양시 덕양구 화정로 52,"경기도 고양시 덕양구 화정로 52 (화정동, 세이브존)",N,2,3,1,0,0,0,3,1,0,고양시 덕양구 환경녹지과,031-8075-5753,10:00~22:00,,37.6343605119,126.8313761507,N,N,N,N,N,N,N,,2022-04-08
공중화장실,세이브존화정 화장실2,경기도 고양시 덕양구 화정로 52,"경기도 고양시 덕양구 화정로 52 (화정동, 세이브존)",N,2,3,0,0,0,0,3,0,0,고양시 덕양구 환경녹지과,031-8075-5753,10:00~22:00,,37.6343605119,126.8313761507,N,N,N,N,N,N,N,,2022-04-08
공중화장실,세이브존화정 화장실4,경기도 고양시 덕양구 화정로 52,"경기도 고양시 덕양구 화정로 52 (화정동, 세이브존)",N,2,3,1,0,0,0,3,1,0,고양시 덕양구 환경녹지과,031-8075-5753,10:00~22:00,,37.6343605119,126.8313761507,N,N,N,N,N,N,N,,2022-04-08
공중화장실,세이브존화정 화장실6,경기도 고양시 덕양구 화정로 52,"경기도 고양시 덕양구 화정로 52 (화정동, 세이브존)",N,3,5,0,0,0,0,5,0,0,고양시 덕양구 환경녹지과,031-8075-5753,10:00~22:00,,37.6343605119,126.8313761507,N,N,N,N,N,N,N,,2022-04-08
공중화장실,옥빛공원 화장실,경기도 고양시 덕양구 화정로 90-2,"경기도 고양시 덕양구 화정로 90-2, 옥빛공원개방화장실 (화정동)",N,1,3,1,0,0,0,2,1,0,공원관리과 공원1팀,031-8075-4320,00:00~24:00,,37.6333036796,126.8357603394,N,N,N,N,N,N,N,,2022-04-08
공중화장실,꽃우물공원 화장실,,경기도 고양시 덕양구 화정동 950,N,2,3,0,0,0,0,2,0,0,고양시 공원관리과,031-8075-2753,00:00~24:00,,37.6281628177,126.8278728072,N,N,N,N,N,N,N,,2022-04-08
공중화장실,화정18호 어린이공원,경기도 고양시 덕양구 중앙로 646,경기도 고양시 덕양구 화정동 949,N,1,2,0,0,0,0,3,0,0,덕양구 환경녹지과 공원관리팀,031-8075-5267,00:00~24:00,,37.6286584538,126.8272114499,N,N,N,N,N,N,N,,2022-04-08
공중화장실,화정13호 어린이공원,경기도 고양시 덕양구 화중로138번길 41,경기도 고양시 덕양구 화정동 890,N,1,1,0,0,0,0,2,0,0,덕양구 환경녹지과 공원관리팀,031-8075-5267,00:00~24:00,,37.6392196942,126.8347442492,N,N,N,N,N,N,N,,2022-04-08
공중화장실,화정12호 어린이공원,경기도 고양시 덕양구 화수로 40,경기도 고양시 덕양구 화정동 869,N,1,2,0,0,0,0,2,0,0,덕양구 환경녹지과 공원관리팀,031-8075-5267,00:00~24:00,,37.6441384673,126.8343036541,N,N,N,N,N,N,N,,2022-04-08
공중화장실,화수공원 화장실,경기도 고양시 덕양구 화수로 71-2,"경기도 고양시 덕양구 화수로 71-2, 공중화장실 (화정동)",N,2,3,1,0,0,0,2,1,0,공원관리과 공원1팀,031-8075-4320,00:00~24:00,,37.6442044515,126.8380209869,N,N,N,N,N,N,N,,2022-04-08
공중화장실,화정2동주민센터 2층,경기도 고양시 덕양구 화신로 232,"경기도 고양시 덕양구 화신로 232 (화정동, 화정2동주민센터)",N,1,2,0,0,0,0,2,0,0,화정2동주민센터,031-8075-5753,9:00~18:00,,37.6305633243,126.8357053996,N,N,N,N,N,N,N,,2022-04-08
공중화장실,화정2동주민센터 1층,경기도 고양시 덕양구 화신로 232,"경기도 고양시 덕양구 화신로 232 (화정동, 화정2동주민센터)",N,2,3,0,0,0,0,3,0,0,화정2동주민센터,031-8075-5753,9:00~18:00,,37.6305633243,126.8357053996,N,N,N,N,N,N,N,,2022-04-08
공중화장실,민방위교육장 2층,경기도 고양시 덕양구 화신로 214,"경기도 고양시 덕양구 화신로 214 (행신동, 고양시민방위교육장)",N,4,6,0,0,0,0,5,0,0,고양시 덕양구 환경녹지과,031-8075-5753,9:00~18:00,,37.6303404571,126.8377473272,N,N,N,N,N,N,N,,2022-04-08
공중화장실,민방위교육장 1층,경기도 고양시 덕양구 화신로 214,"경기도 고양시 덕양구 화신로 214 (행신동, 고양시민방위교육장)",N,4,7,0,0,0,0,5,0,0,고양시 덕양구 환경녹지과,031-8075-5753,9:00~18:00,,37.6303404571,126.8377473272,N,N,N,N,N,N,N,,2022-04-08
공중화장실,화전역 화장실,경기도 고양시 덕양구 화랑로 53,"경기도 고양시 덕양구 화랑로 53 (화전동, 화전역)",N,4,7,0,0,0,0,6,0,0,한국철도공사,02-3158-0788,05:00~00:30,,37.6033151662,126.8683825019,N,N,N,N,N,N,N,,2022-04-08
공중화장실,성사1동주민센터 화장실,경기도 고양시 덕양구 호국로790번길 101,"경기도 고양시 덕양구 호국로790번길 101 (성사동, 성사1동주민센터)",N,3,4,1,0,0,0,2,1,0,덕양구 성사1동,031-8075-5708,9:00~18:00,,37.6545073246,126.8413645477,N,N,N,N,N,N,N,,2022-04-08
공중화장실,성사2동 주민센터 화장실,,"경도기 고양시 덕양구 호국로742번길 6-6 (성사동, 성사2동주민센터)",N,2,2,1,0,0,0,2,1,0,덕양구 성사2동주민센터,031-8075-5722,9:00~18:00,,,,N,N,N,N,N,N,N,,2022-04-08
공중화장실,성사공원(관리사옆),경기도 고양시 덕양구 호국로 876,경기도 고양시 덕양구 호국로 876,N,2,3,0,0,0,0,3,0,0,공원관리과 공원1팀,031-8075-4320,00:00~24:00,,37.6627586356,126.8437293076,N,N,N,N,N,N,N,,2022-04-08
공중화장실,원신동주민센터 1층,경기도 고양시 덕양구 호국로 1261,"경기도 고양시 덕양구 호국로 1261 (신원동, 원신동주민센터)",N,2,2,0,0,0,0,3,0,0,원신동주민센터,031-8075-2753,9:00~18:00,,37.6773992847,126.8758518636,N,N,N,N,N,N,N,,2022-04-08
공중화장실,행주역사공원,경기도 고양시 덕양구 행주산성로 93-38,경기도 고양시 덕양구 행주산성로 93-38,N,1,2,0,0,0,0,3,0,0,고양시 생태하천과,031-8075-2753,00:00~24:00,,37.5980399763,126.8193196829,N,N,N,N,N,N,N,,2022-04-08
공중화장실,행주산성제중간 화장실,경기도 고양시 덕양구 행주로15번길 89,경기도 고양시 덕양구 행주로15번길 89 (행주외동),N,2,2,0,0,0,0,3,0,0,행주산성관리사업소,031-8075-4647,9:00~18:00,,37.5960440051,126.8264743850,N,N,N,N,N,N,N,,2022-04-08
공중화장실,행주산성제2주차장 화장실,경기도 고양시 덕양구 행주로15번길 89,경기도 고양시 덕양구 행주로15번길 89 (행주외동),N,3,4,0,0,0,0,6,0,0,행주산성관리사업소,031-8075-4647,유사시,,37.5960440051,126.8264743850,N,N,N,N,N,N,N,,2022-04-08
공중화장실,충장공원(풋살구장),,경기도 고양시 덕양구 행주내동 639,N,5,7,0,0,0,0,9,0,0,공원관리과 공원1팀,031-8075-4320,00:00~24:00,,37.6144453046,126.8247336537,N,N,N,N,N,N,N,,2022-04-08
공중화장실,행신9호 어린이공원,경기도 고양시 덕양구 소만로 42,경기도 고양시 덕양구 행신동 792,N,1,2,0,0,0,0,2,0,0,덕양구 환경녹지과 공원관리팀,031-8075-5267,00:00~24:00,,37.6167464088,126.8438506651,N,N,N,N,N,N,N,,2022-04-08
공중화장실,행신8호 어린이공원,경기도 고양시 덕양구 화신로 16,경기도 고양시 덕양구 행신동 786,N,1,2,0,0,0,0,3,0,0,덕양구 환경녹지과 공원관리팀,031-8075-5267,00:00~24:00,,37.6140130585,126.8402035868,N,N,N,N,N,N,N,,2022-04-08
공중화장실,행신5호 어린이공원,경기도 고양시 덕양구 행신로 196,경기도 고양시 덕양구 행신동 775,N,1,1,0,0,0,0,2,0,0,덕양구 환경녹지과 공원관리팀,031-8075-5267,00:00~24:00,,37.6182305058,126.8368462818,N,N,N,N,N,N,N,,2022-04-08
공중화장실,행신4호 어린이공원,경기도 고양시 덕양구 용현로 37,경기도 고양시 덕양구 행신동 755,N,2,2,1,0,0,0,3,1,0,덕양구 환경녹지과 공원관리팀,031-8075-5267,00:00~24:00,,37.6160246072,126.8356648039,N,N,N,N,N,N,N,,2022-04-08
공중화장실,행신3호 어린이공원,경기도 고양시 덕양구 무원로 56,경기도 고양시 덕양구 행신동 734,N,2,1,1,0,0,0,3,1,0,덕양구 환경녹지과 공원관리팀,031-8075-5267,00:00~24:00,,37.6179461380,126.8327695979,N,N,N,N,N,N,N,,2022-04-08
공중화장실,행신1호 어린이공원,경기도 고양시 덕양구 소원로 11,경기도 고양시 덕양구 행신동 694,N,1,1,0,0,0,0,2,0,0,덕양구 환경녹지과 공원관리팀,031-8075-5267,00:00~24:00,,37.6172534783,126.8298297197,N,N,N,N,N,N,N,,2022-04-08
공중화장실,서정4호 어린이공원,경기도 고양시 덕양구 소원로 260,경기도 고양시 덕양구 행신동 1110,N,3,3,1,0,0,0,6,1,0,덕양구 환경녹지과 공원관리팀,031-8075-5267,00:00~24:00,,37.6141276994,126.8511252385,N,N,N,N,N,N,N,,2022-04-08
공중화장실,삼성화재 일산사옥,경기도 고양시 일산동구 중앙로 1161,"경기도 고양시 일산동구 중앙로 1161 (장항동, 삼성화재㈜일산사옥)",N,2,2,0,0,0,0,3,0,0,일산동구청 환경녹지과,031-8075-6243,:~:,,37.6505318838,126.7781103647,N,N,N,N,N,N,N,,2022-04-08
공중화장실,올리브상가,,"경기도 고양시 일산동구 중앙로 1130 (마두동, 강촌마을6단지아파트)",N,24,25,0,0,0,0,30,0,0,일산동구청 환경녹지과 청소행정팀,031-8075-6243,:~:,,37.6496256078,126.7802502896,N,N,N,N,N,N,N,,2022-04-08
공중화장실,흰돌복합상가,,"경기도 고양시 일산동구 중앙로 1124 (백석동, 흰돌마을1단지아파트)",N,5,8,0,0,0,0,10,0,0,일산동구청 환경녹지과 청소행정팀,031-8075-6243,:~:,,37.6475958027,126.7829110755,N,N,N,N,N,N,N,,2022-04-08
공중화장실,이마트(일산점),,"경기도 고양시 일산동구 중앙로 1124 (백석동, 흰돌마을1단지아파트)",N,6,3,0,0,0,0,6,0,0,일산동구청 환경녹지과 청소행정팀,031-8075-6243,10:00~23:00,,37.6475958027,126.7829110755,N,N,N,N,N,N,N,,2022-04-08
공중화장실,폭스바겐 전시장,경기도 고양시 일산동구 중앙로 1067,경기도 고양시 일산동구 중앙로 1067 (백석동),N,3,3,0,0,0,0,3,0,0,일산동구청 환경녹지과 청소행정팀,031-8075-6243,:~:,,37.6443483913,126.7854473569,N,N,N,N,N,N,N,,2022-04-08
공중화장실,영림브레아 2차,,"경기도 고양시 일산동구 중앙로 1047 (백석동, 영림브레아오피스텔)",N,2,2,0,0,0,0,2,0,0,일산동구청 환경녹지과 청소행정팀,031-8075-6243,00:00~00:00,,37.6431060422,126.7871821670,N,N,N,N,N,N,N,,2022-04-08
공중화장실,홈플러스(고양터미널점),경기도 고양시 일산동구 중앙로 1036,"경기도 고양시 일산동구 중앙로 1036 (백석동, 베스트 고양터미널)",N,12,34,0,0,0,0,24,0,0,일산동구청 환경녹지과 청소행정팀,031-8075-6243,10:00~00:00,,37.6431934574,126.7897203592,N,N,N,N,N,N,N,,2022-04-08
공중화장실,현대밀라트 2차 A동,,"경기도 고양시 일산동구 중앙로 1011 (백석동, 현대밀라트II)",N,2,3,0,0,0,0,2,0,0,일산동구청 환경녹지과 청소행정팀,031-8075-6243,:~:,,37.6409515327,126.7901157474,N,N,N,N,N,N,N,,2022-04-08
공중화장실,현대밀라트2차B동,,"경기도 고양시 일산동구 중앙로 1005 (백석동, 현대밀라트II)",N,2,3,0,0,0,0,2,0,0,일산동구청 환경녹지과 청소행정팀,031-8075-6243,:~:,,37.6403880914,126.7908465182,N,N,N,N,N,N,N,,2022-04-08
공중화장실,해태스포츠센타,경기도 고양시 일산동구 중산로 241,"경기도 고양시 일산동구 중산로 241 (중산동, 해태쇼핑타운)",N,8,12,0,0,0,0,10,0,0,일산동구청 환경녹지과 청소행정팀,031-8075-6243,:~:,,37.6936996033,126.7801420540,N,N,N,N,N,N,N,,2022-04-08
공중화장실,센트럴 프라자,경기도 고양시 일산동구 정발산로 43-20,"경기도 고양시 일산동구 정발산로 43-20 (장항동, 센트럴프라자)",N,39,39,0,0,0,0,39,0,0,일산동구청 환경녹지과 청소행정팀,031-8075-6243,:~:,,37.6583803846,126.7733747675,N,N,N,N,N,N,N,,2022-04-08
공중화장실,낙원프라자,경기도 고양시 일산동구 정발산로 33,"경기도 고양시 일산동구 정발산로 33 (장항동, 낙원프라자)",N,19,38,0,0,0,0,19,0,0,일산동구청 환경녹지과 청소행정팀,031-8075-6243,:~:,,37.6571675824,126.7725589823,N,N,N,N,N,N,N,,2022-04-08
공중화장실,강호당구클럽,경기도 고양시 일산동구 정발산로 33,"경기도 고양시 일산동구 정발산로 33 (장항동, 낙원프라자)",N,12,16,0,0,0,0,17,0,0,일산동구청 환경녹지과 청소행정팀,031-8075-6243,:~:,,37.6571675824,126.7725589823,N,N,N,N,N,N,N,,2022-04-08
공중화장실,파크프라자,,"경기도 고양시 일산동구 정발산로 31-10 (장항동, 파크프라자)",N,28,30,0,0,0,0,29,0,0,일산동구청 환경녹지과 청소행정팀,031-8075-6243,:~:,,37.6573920608,126.7724207470,N,N,N,N,N,N,N,,2022-04-08
공중화장실,오거리공원,경기도 고양시 일산서구 주엽로 220-4,경기도 고양시 일산서구 주엽동 34,N,1,1,0,0,0,0,1,1,0,일산서구 환경녹지과,,24시간,,37.6760639231,126.7645839927,N,N,N,N,N,N,N,,2022-04-08
공중화장실,회화공원,경기도 고양시 일산서구 고봉로 25-3,경기도 고양시 일산서구 주엽동 91,N,2,3,1,0,0,0,5,1,0,일산서구 환경녹지과,,24시간,,37.6656761752,126.7638588009,N,N,N,N,N,N,N,,2022-04-08
공중화장실,궁골공원,경기도 고양시 일산서구 고봉로 91-3,경기도 고양시 일산서구 주엽동 55,N,2,3,1,0,0,0,4,1,0,일산서구 환경녹지과,,24시간,,37.6695573032,126.7690817325,N,N,N,N,N,N,N,,2022-04-08
공중화장실,문화공원,,경기도 고양시 일산서구 주엽동 77,N,1,2,1,0,0,0,2,1,0,고양시 공원관리과,031-8075-4339,24시간,,37.6752632782,126.7648738469,N,N,N,N,N,N,N,,2022-04-08
공중화장실,이물재공원,경기도 고양시 일산서구 고봉로 143-3,경기도 고양시 일산서구 주엽동 39,N,1,1,1,0,0,2,3,1,0,일산서구 환경녹지과,,24시간,,37.6735387318,126.7716054168,N,N,N,N,N,N,N,,2022-04-08
공중화장실,송산동 행정복지센터 화장실(3층),경기도 고양시 일산서구 덕이로 50-7,경기도 고양시 일산서구 덕이로 50-7,N,1,1,0,0,0,0,2,0,0,송산동 행정복지센터,031-8075-7943,09:00~18:00,,37.6909070774,126.7542861708,N,N,N,N,N,N,N,,2022-04-08
공중화장실,송산동 행정복지센터 화장실(2층),경기도 고양시 일산서구 덕이로 50-7,경기도 고양시 일산서구 덕이로 50-7,N,1,2,0,0,0,0,2,0,0,송산동 행정복지센터,031-8075-7943,09:00~18:00,,37.6909070774,126.7542861708,N,N,N,N,N,N,N,,2022-04-08
공중화장실,송포동 행정복지센터 화장실(2층),경기도 고양시 일산서구 대화로 143,경기도 고양시 일산서구 대화로 143,N,2,2,0,0,0,0,2,0,0,송포동 행정복지센터,031-8075-7913,09:00~18:00,,37.6714171483,126.7354540619,N,N,N,N,N,N,N,,2022-04-08
공중화장실,대화동 행정복지센터 화장실(3층),,경기도 고양시 일산서구 일산로 688,N,1,1,0,0,0,0,1,0,0,대화동 행정복지센터,031-8075-7885,09:00~18:00,,,,N,N,N,N,N,N,N,,2022-04-08
공중화장실,대화동 행정복지센터 화장실(2층),,경기도 고양시 일산서구 일산로 688,N,1,1,0,0,0,0,2,0,0,대화동 행정복지센터,031-8075-7885,09:00~18:00,,,,N,N,N,N,N,N,N,,2022-04-08
공중화장실,대화동 행정복지센터 화장실(1층),,경기도 고양시 일산서구 일산로 688,N,2,2,0,0,0,0,3,0,0,대화동 행정복지센터,031-8075-7885,09:00~18:00,,,,N,N,N,N,N,N,N,,2022-04-08
공중화장실,주엽2동 행정복지센터 화장실(3층),경기도 고양시 일산서구 주엽로 178,경기도 고양시 일산서구 주엽로 178,N,1,1,0,0,0,0,1,0,0,주엽2동 행정복지센터,031-8075-7855,09:00~18:00,,37.6741184196,126.7604755694,N,N,N,N,N,N,N,,2022-04-08
공중화장실,주엽2동 행정복지센터 화장실(1층),경기도 고양시 일산서구 주엽로 178,경기도 고양시 일산서구 주엽로 178,N,1,2,1,0,0,0,2,1,0,주엽2동 행정복지센터,031-8075-7855,09:00~18:00,,37.6741184196,126.7604755694,N,N,N,N,N,N,N,,2022-04-08
공중화장실,주엽1동 행정복지센터 화장실(3층),,경기도 고양시 일산서구 주엽동 강선로 109,N,1,1,0,0,0,0,2,0,0,주엽1동 행정복지센터,031-8075-7823,09:00~18:00,,,,N,N,N,N,N,N,N,,2022-04-08
공중화장실,주엽1동 행정복지센터 화장실(2층),,경기도 고양시 일산서구 주엽동 강선로 109,N,0,0,0,0,0,0,2,0,0,주엽1동 행정복지센터,031-8075-7823,09:00~18:00,,,,N,N,N,N,N,N,N,,2022-04-08
공중화장실,탄현동 행정복지센터 화장실(3층),경기도 고양시 일산서구 홀트로 36,경기도 고양시 일산서구 홀트로 36,N,2,3,0,0,0,0,3,0,0,탄현동 행정복지센터,031-8075-7794,09:00~18:00,,37.6943123866,126.7684077631,N,N,N,N,N,N,N,,2022-04-08
공중화장실,탄현동 행정복지센터 화장실(1층),경기도 고양시 일산서구 홀트로 36,경기도 고양시 일산서구 홀트로 36,N,2,3,1,0,0,0,3,1,0,탄현동 행정복지센터,031-8075-7794,09:00~18:00,,37.6943123866,126.7684077631,N,N,N,N,N,N,N,,2022-04-08
공중화장실,일산3동 행정복지센터 화장실(3층),경기도 고양시 일산서구 강선로 158,경기도 고양시 일산서구 강선로 158,N,0,1,0,0,0,0,1,0,0,일산3동 행정복지센터,031-8075-7762,09:00~18:00,,37.6769823818,126.7702449619,N,N,N,N,N,N,N,,2022-04-08
공중화장실,일산3동 행정복지센터 화장실(1층),경기도 고양시 일산서구 강선로 158,경기도 고양시 일산서구 강선로 158,N,1,2,1,0,0,0,1,1,0,일산3동 행정복지센터,031-8075-7762,09:00~18:00,,37.6769823818,126.7702449619,N,N,N,N,N,N,N,,2022-04-08
공중화장실,일산2동 행정복지센터 화장실(3층),경기도 고양시 일산서구 고봉로 283,경기도 고양시 일산서구 고봉로 283(일산동),N,2,2,0,0,0,1,3,1,0,일산2동 행정복지센터,031-8075-7735,09:00~18:00,,37.6846232867,126.7771903313,N,N,N,N,N,N,N,,2022-04-08
공중화장실,일산2동 행정복지센터 화장실(2층),경기도 고양시 일산서구 고봉로 283,경기도 고양시 일산서구 고봉로 283(일산동),N,2,2,0,0,0,1,3,1,0,일산2동 행정복지센터,031-8075-7735,09:00~18:00,,37.6846232867,126.7771903313,N,N,N,N,N,N,N,,2022-04-08
공중화장실,일산2동 행정복지센터 화장실(1층),경기도 고양시 일산서구 고봉로 283,경기도 고양시 일산서구 고봉로 283(일산동),N,2,2,0,0,0,1,3,1,0,일산2동 행정복지센터,031-8075-7735,09:00~18:00,,37.6846232867,126.7771903313,N,N,N,N,N,N,N,,2022-04-08
공중화장실,일산1동 행정복지센터 화장실(3층),경기도 고양시 일산서구 원일로 55,경기도 고양시 일산서구 원일로 55,N,1,1,0,0,0,0,0,0,0,일산1동 행정복지센터,031-8075-7704,09:00~18:00,,37.6872378175,126.7685339725,N,N,N,N,N,N,N,,2022-04-08
공중화장실,일산1동 행정복지센터 화장실(2층),경기도 고양시 일산서구 원일로 55,경기도 고양시 일산서구 원일로 55,N,0,0,0,0,0,0,4,0,0,일산1동 행정복지센터,031-8075-7704,09:00~18:00,,37.6872378175,126.7685339725,N,N,N,N,N,N,N,,2022-04-08
공중화장실,일산1동행정복지센터화장실(1층),경기도 고양시 일산서구 원일로 55,경기도 고양시 일산서구 원일로 55,N,2,3,0,0,0,0,0,1,0,일산1동 행정복지센터,031-8075-7704,09:00~18:00,,37.6872378175,126.7685339725,N,N,N,N,N,N,N,,2022-04-08
공중화장실,일산서구청 화장실(5층),경기도 고양시 일산서구 중앙로 1600,경기도 고양시 일산서구 중앙로 1600,N,4,4,0,0,0,0,9,0,0,일산서구청,031-8075-7044,09:00~18:00,,37.6779159791,126.7452987036,N,N,N,N,N,N,N,,2022-04-08
공중화장실,일산서구청 화장실(3층),경기도 고양시 일산서구 중앙로 1600,경기도 고양시 일산서구 중앙로 1600,N,4,4,0,0,0,0,9,0,0,일산서구청,031-8075-7044,09:00~18:00,,37.6779159791,126.7452987036,N,N,N,N,N,N,N,,2022-04-08
공중화장실,일산서구청 화장실(2층),경기도 고양시 일산서구 중앙로 1600,경기도 고양시 일산서구 중앙로 1600,N,5,5,1,0,1,2,9,1,1,일산서구청,031-8075-7044,09:00~18:00,,37.6779159791,126.7452987036,N,N,N,N,N,N,N,,2022-04-08
공중화장실,일산서구청 화장실(지하1층),경기도 고양시 일산서구 중앙로 1600,경기도 고양시 일산서구 중앙로 1600,N,1,2,0,0,0,0,2,0,0,일산서구청,031-8075-7044,09:00~18:00,,37.6779159791,126.7452987036,N,N,N,N,N,N,N,,2022-04-08
공중화장실,신풍프라자,,"경기도 고양시 일산동구 호수로 646-30 (장항동, 신풍프라자)",N,23,23,0,0,0,0,23,0,0,일산동구청 환경녹지과 청소행정팀,031-8075-6243,:~:,,37.6599073399,126.7681446464,N,N,N,N,N,N,N,,2022-04-08
개방화장실,금곡양정행정복지센터 6층,경기도 남양주시 경춘로 899,경기도 남양주시 금곡동 687-16,N,3,3,1,0,0,0,6,1,0,금곡양정행정복지센터,031-590-1998,정시,,37.6330922365,127.2014611199,공공기관-지방자치단체,수세식,Y,장애인화장실,Y,N,,,2024-05-01
개방화장실,금곡역,경기도 남양주시 경춘로 903(금곡동),경기도 남양주시 금곡동 687-4번지,N,4,8,1,1,0,0,12,1,0,한국철도공사,1544-7788,정시,,37.6332754798,127.2026390836,공공기관-국가공공기관,수세식,Y,여자화장실+남자화장실+장애인화장실,Y,Y,여자화장실,,2024-05-01
공중화장실,금곡우체국 1층,"경기도 남양주시 사릉로17(금곡동, 금곡우체국)",경기도 남양주시 금곡동404-56,N,0,1,1,1,0,0,0,1,0,금곡우체국,031-591-7112,정시,,37.6347740760,127.2071893199,공공기관-국가,수세식,Y,장애인화장실,N,Y,남자화장실+여자화장실,2023-10,2024-05-01
공중화장실,금곡프라자(민간개방화장실),경기도 남양주시 사릉로 14,경기도 남양주시 금곡동 416-1,N,2,3,1,0,0,0,2,1,0,관리사무소,031-595-2022,상시,,37.6343155478,127.2076558042,민간소유-개인,수세식,N,,N,N,,,2024-05-01
공중화장실,금남리 꽃가람 공원[금남-4],,경기도 남양주시 화도읍 금남리 514(서울춘천 교량 밑),N,1,2,1,0,0,0,3,0,0,남양주시 공원관리과,031-590-4993,상시,,37.6346426759,127.3549718745,공공기관-지방자치단체,수거식,N,,Y,N,,,2024-05-01
공중화장실,금배근린공원[호평-4],,경기도 남양주시 호평동 620(하천변),N,1,2,1,0,0,0,3,1,0,남양주시 공원관리과,031-590-4738,상시,,37.6566139003,127.2420787585,공공기관-지방자치단체,수세식,Y,남자화장실+여자화장실+장애인화장실,Y,N,,,2024-05-01
공중화장실,남양주소방서 가운119안전센터 청사 1층,경기도 남양주시 가운로 16,경기도 남양주시 다산동 665,N,2,3,1,0,0,0,2,0,0,남양주소방서 가운119안전센터,031-590-0573,정시,,37.6048715332,127.1584092847,공공기관-국가,수세식,N,,N,N,,,2024-05-01
공중화장실,남양주소방서 다산119안전센터 청사 1층,경기도 남양주시 다산중앙로 146번길 76,경기도 남양주시 다산동 6044,N,1,2,0,0,0,0,1,0,0,남양주소방서 다산119안전센터,031-590-0583,정시,,37.6267984904,127.1605754882,공공기관-국가,수세식,N,,N,N,,,2024-05-01
공중화장실,남양주소방서 별내119안전센터 구청사 1층,경기도 남양주시 송산로 41 (구청사),경기도 남양주시 별내동 980,Y,0,1,1,0,0,0,1,0,0,남양주소방서 별내119안전센터,031-590-0563,정시,,37.6461208388,127.1298022250,공공기관-국가,수세식,N,,N,N,,,2024-05-01
공중화장실,남양주소방서 별내119안전센터 신청사 1층,경기도 남양주시 송산로 41 (신청사),경기도 남양주시 별내동 980,N,1,1,0,0,0,0,2,0,0,남양주소방서 별내119안전센터,031-590-0563,정시,,37.6461208388,127.1298022250,공공기관-국가,수세식,N,,N,N,,,2024-05-01
공중화장실,남양주소방서 본서(평내119안전센터) 청사 1층,경기도 남양주시 평내로 25,경기도 남양주시 평내동 570,N,3,3,1,1,0,0,2,1,0,남양주소방서 소방행정과,031-590-0222,정시,,37.6433241852,127.2322177869,공공기관-국가,수세식,N,,N,N,,,2024-05-01
공중화장실,남양주소방서 본서(평내119안전센터) 청사 2층,경기도 남양주시 평내로 25,경기도 남양주시 평내동 570,N,4,3,0,1,0,0,2,0,0,남양주소방서 소방행정과,031-590-0222,정시,,37.6433241852,127.2322177869,공공기관-국가,수세식,N,,N,N,,,2024-05-01
공중화장실,남양주소방서 와부119안전센터 청사 1층,경기도 남양주시 와부읍 덕소로97번길 34-2,경기도 남양주시 와부읍 덕소리 110-6,N,2,2,0,0,0,0,1,0,0,남양주소방서 와부119안전센터,031-590-0532,정시,,37.5857898719,127.2162045836,공공기관-국가,수세식,N,,N,N,,,2024-05-01
공중화장실,남양주소방서 진건119안전센터 청사 1층,경기도 남양주시 진건읍 진건오남로 112-21,경기도 남양주시 진건읍 용정리 750-3,Y,1,2,0,0,0,0,1,0,0,남양주소방서 진건119안전센터,031-590-0551,정시,,37.6601489956,127.1802533387,공공기관-국가,수세식,N,,N,N,,,2024-05-01
공중화장실,남양주소방서 진접119안전센터 청사 1층,경기도 남양주시 진접읍 금강로 1509-25,경기도 남양주시 진접읍 장현리 68-49,Y,2,3,0,0,0,0,2,0,0,남양주소방서 진접119안전센터,031-590-0523,정시,,37.7255661016,127.1897426548,공공기관-국가,수세식,N,,N,N,,,2024-05-01
공중화장실,남양주시립박물관 화장실,경기도 남양주시 팔당로 121(와부읍),경기도 남양주시 와부읍 팔당리 237-3,N,2,4,1,0,0,0,8,1,0,남양주시 문화예술과,031-590-8600,정시,,37.5463749425,127.2443835329,공공기관-지방자치단체,수세식,N,,Y,N,,,2024-05-01
공중화장실,남양주시청제1청사 광장,경기도 남양주시 경춘로 1037,경기도 남양주시 금곡동 185-10,N,3,5,1,0,0,0,6,1,0,남양주시 재산관리과,031-590-2728,상시,,37.6366920245,127.2174958647,공공기관-지방자치단체,수세식,Y,장애인화장실,N,N,,,2024-05-01
공중화장실,야외무대 화장실,경기도 남양주시 다산지금로 91,경기도 남양주시 이패동 산87,N,4,4,1,0,0,0,5,1,0,남양주체육문화센터,031-560-1258,정시,,37.6054975037,127.1758197051,공공기관-지방공공기관(지방공기업/지방출자출연기관),수세식,N,,N,N,,,2024-05-01
공중화장실,약대울 물놀이장[평내-3],,경기도 남양주시 평내동 466-4,N,2,2,1,0,0,0,4,0,0,호평동 주민센터,031-590-2853,상시,,37.6514278209,127.2302607512,공공기관-지방자치단체,수세식,N,,Y,N,,,2024-05-01
공중화장실,약대울체육공원 테니스장 앞[평내-6],,경기도 남양주시 평내동 180-17,N,2,2,0,0,0,0,3,0,0,호평동 주민센터,031-590-2853,정시,,37.6527442956,127.2342045473,공공기관-지방자치단체,수세식,N,,Y,N,,,2024-05-01
공중화장실,약초보감(민간개방화장실),경기도 남양주시 별내면 용암샛말길 3-99,경기도 남양주시 별내면 용암리 산50-4,N,1,2,0,0,0,0,2,0,0,약초보감,031-000-0001,정시,,37.7181354408,127.1349472270,민간소유-개인,수세식,N,,N,N,,,2024-05-01
개방화장실,남양주시청제1청사 별관동 4층,경기도 남양주시 경춘로 1037,경기도 남양주시 금곡동 185-10,N,3,3,1,1,0,0,8,1,0,남양주시 재산관리과,031-590-2728,정시,,37.6366920245,127.2174958647,공공기관-지방자치단체,수세식,N,,N,Y,여자화장실,,2024-05-01
개방화장실,남양주시청제1청사 본관동 1층,경기도 남양주시 경춘로 1037,경기도 남양주시 금곡동 185-10,N,5,4,0,0,0,0,5,1,0,남양주시 재산관리과,031-590-2728,정시,,37.6366920245,127.2174958647,공공기관-지방자치단체,수세식,Y,장애인화장실,N,Y,여자화장실,,2024-05-01
개방화장실,남양주시청제1청사 본관동 2층,경기도 남양주시 경춘로 1037,경기도 남양주시 금곡동 185-10,N,5,4,0,0,0,0,5,0,0,남양주시 재산관리과,031-590-2728,정시,,37.6366920245,127.2174958647,공공기관-지방자치단체,수세식,N,,N,N,,,2024-05-01
공중화장실,남양주시청제1청사 본관동 3층,경기도 남양주시 경춘로 1037,경기도 남양주시 금곡동 185-10,N,5,4,0,0,0,0,5,0,0,남양주시 재산관리과,031-590-2728,정시,,37.6366920245,127.2174958647,공공기관-지방자치단체,수세식,N,,N,N,,,2024-05-01
공중화장실,남양주시청제1청사 본관동 4층,경기도 남양주시 경춘로 1037,경기도 남양주시 금곡동 185-10,N,5,4,0,0,0,0,5,0,0,남양주시 재산관리과,031-590-2728,정시,,37.6366920245,127.2174958647,공공기관-지방자치단체,수세식,N,,N,N,,,2024-05-01
공중화장실,남양주시청제1청사 본관동 지하1층,경기도 남양주시 경춘로 1037,경기도 남양주시 금곡동 185-10,N,3,3,1,1,0,0,5,0,0,남양주시 재산관리과,031-590-2728,정시,,37.6366920245,127.2174958647,공공기관-지방자치단체,수세식,N,,N,N,,,2024-05-01
공중화장실,남양주시청제1청사 신관동 1층,경기도 남양주시 경춘로 1037,경기도 남양주시 금곡동 185-10,N,2,2,0,0,0,0,2,1,0,남양주시 재산관리과,031-590-2728,정시,,37.6366920245,127.2174958647,공공기관-지방자치단체,수세식,N,,N,N,,,2024-05-01
공중화장실,남양주시청제1청사 신관동 3층,경기도 남양주시 경춘로 1037,경기도 남양주시 금곡동 185-10,N,2,2,0,0,0,0,2,0,0,남양주시 재산관리과,031-590-2728,정시,,37.6366920245,127.2174958647,공공기관-지방자치단체,수세식,N,,N,N,,,2024-05-01
공중화장실,남양주시청제1청사 신관동 4층,경기도 남양주시 경춘로 1037,경기도 남양주시 금곡동 185-10,N,2,2,0,0,0,0,2,0,0,남양주시 재산관리과,031-590-2728,정시,,37.6366920245,127.2174958647,공공기관-지방자치단체,수세식,N,,N,N,,,2024-05-01
개방화장실,남양주체육문화센터 1층,경기도 남양주시 다산지금로 91,경기도 남양주시 이패동 산87,N,3,3,1,0,0,0,3,1,0,남양주체육문화센터,031-560-1258,정시,,37.6054975037,127.1758197051,공공기관-지방공공기관(지방공기업/지방출자출연기관),수세식,N,,N,N,,,2024-05-01
개방화장실,"남한강 자전거도로(덕소리, 자전거도로 입구)[덕소-1]",,경기도 남양주시 와부읍 덕소리 600-54,N,1,1,0,0,0,0,1,0,0,남양주시 도로관리과,031-590-1392,상시,,37.5864934018,127.2061134983,공공기관-지방자치단체,수거식,Y,여자화장실+남자화장실,Y,N,,,2024-05-01
개방화장실,"남한강 자전거도로(도곡리, 도곡취수장 앞)[도곡-3]",경기도 남양주시 와부읍 경강로 756,경기도 남양주시 와부읍 도곡리 504-41,N,1,1,0,0,0,0,2,0,0,남양주시 도로관리과,031-590-1392,상시,,37.5685094872,127.2270504239,공공기관-지방자치단체,수거식,Y,여자화장실,Y,N,,,2024-05-01
개방화장실,남한강 자전거도로(팔당리)[팔당-4],,경기도 남양주시 와부읍 팔당리 350-1,N,1,2,0,0,0,0,2,0,0,남양주시 도로관리과,031-590-1392,상시,,37.5447095899,127.2454641681,공공기관-지방자치단체,수거식,Y,여자화장실,Y,N,,,2024-05-01
개방화장실,내각리 알동산 족구장[내각-1],,경기도 남양주시 진접읍 내각리 337-13,N,2,2,1,0,0,0,2,1,0,진접읍 생활자치과,031-590-5820,상시,,37.7007265670,127.1666214716,공공기관-지방자치단체,수세식,Y,장애인화장실+남자화장실+여자화장실,N,N,,,2024-05-01
개방화장실,"경춘선 자전거도로(평내동, 약대울 소리정원)[평내-4]",,경기도 남양주시 평내동 465,N,1,1,0,0,0,0,2,0,0,남양주시 도로관리과,031-590-1392,상시,,37.6511131296,127.2302169440,공공기관-지방자치단체,수거식,Y,여자화장실,Y,N,,,2024-05-01
개방화장실,내곡리 체육시설[내곡-1],,경기도 남양주시 진접읍 내곡리 483-3,N,2,2,1,0,0,0,4,0,0,진접읍사무소 생활자치과,031-000-0000,상시,,37.6778790156,127.1641478847,공공기관-지방자치단체,수세식,Y,남자화장실+여자화장실,N,N,,,2024-05-01
개방화장실,녹촌제1호근린공원[녹촌-1],,경기도 남양주시 화도읍 녹촌리 573,N,1,2,1,1,1,1,4,1,1,남양주시 공원관리과,031-590-4993,상시,,37.6518964842,127.2943388757,공공기관-지방자치단체,수세식,Y,장애인화장실,N,Y,남자화장실+여자화장실,,2024-05-01
개방화장실,늘을중앙공원 화장실(지상1층)[호평-7],,경기도 남양주시 호평동 218-3,N,4,4,1,0,0,0,12,1,0,남양주시 공원관리과,031-590-4738,상시,,37.6590242612,127.2444876971,공공기관-지방자치단체,수세식,Y,남자화장실+여자화장실,Y,N,,,2024-05-01
개방화장실,늘을중앙공원 화장실(지하1층)[호평-8],,경기도 남양주시 호평동 218-3,N,5,4,1,0,0,0,10,1,0,남양주시 공원관리과,031-590-4738,상시,,37.6590242612,127.2444876971,공공기관-지방자치단체,수세식,Y,남자화장실+여자화장실,Y,N,,,2024-05-01
개방화장실,능내리 자전거도로(봉주르근처)[능내-5],,경기도 남양주시 조안면 능내리 산67-2,N,1,2,0,0,0,0,2,0,0,남양주시 환경정책과,031-590-2848,상시,,37.5251886591,127.2873400070,공공기관-지방자치단체,수거식,N,,Y,N,,,2024-05-01
개방화장실,능내리 자전거도로(봉주르근처)[능내-5],,경기도 남양주시 조안면 능내리 산67-2,N,1,2,0,0,0,0,2,0,0,남양주시 환경정책과,031-590-2848,상시,,37.5251886591,127.2873400070,공공기관-지방자치단체,수거식,Y,여자화장실,Y,N,,,2024-05-01
개방화장실,능내역사문화공원[능내-6],"경기도 남양주시 조안면 다산로 566-5 (능내리, 능내역(폐역))",경기도 남양주시 조안면 능내리 127-14,N,2,2,1,0,0,0,4,1,0,남양주시 문화관광과,031-590-2114,상시,,37.5235630636,127.2961348999,공공기관-지방자치단체,수세식,N,,Y,N,,,2024-05-01
개방화장실,다목적 잔디광장[도농-3],,경기도 남양주시 도농동 241,N,2,1,0,0,0,0,4,0,0,남양주도시공사,031-590-1253,상시,,37.6020883088,127.1512060126,공공기관-지방공공기관(지방공기업/지방출자출연기관),수세식,N,,Y,N,,,2024-05-01
개방화장실,다산 어린이공원3호[다산-4],경기도 남양주시 다산지금로16번길 46,경기도 남양주시 다산동 3074-1,N,1,2,1,0,1,0,2,1,1,남양주시 공원관리과,031-590-2855,상시,,37.6093435824,127.1683705443,공공기관-지방자치단체,수세식,N,,Y,N,,,2024-05-01
개방화장실,다산생태공원 공중화장실[능내-1],,경기도 남양주시 조안면 능내리 56-35,N,1,3,1,0,0,0,3,1,0,남양주시 하천공원관리과,031-590-8634,상시,,37.5138331282,127.2984615984,공공기관-지방자치단체,수거식,N,,Y,N,,,2024-05-01
개방화장실,다산아트홀,경기도 남양주시 다산중앙로 7,경기도 남양주시 다산동 6150,N,5,4,1,2,0,0,12,1,0,남양주시 문화예술과,031-590-4358,정시,,37.6139217042,127.1555352229,공공기관-지방자치단체,수세식,N,,Y,N,,,2024-05-01
개방화장실,다산유적지 전망대[능내-4],경기도 남양주시 조안면 다산로761번길 12,경기도 남양주시 능내리 17-11,N,2,2,0,0,0,0,4,0,0,남양주시 하천공원관리과,031-590-8634,상시,2024-04,37.5148435933,127.2994741237,공공기관-지방자치단체,수세식,N,,Y,N,,2024-04,2024-05-01
개방화장실,다산지금 근린공원8호 화장실[다산-5],경기도 남양주시 다산중앙로82번길 54,경기도 남양주시 다산동 6126,N,1,2,1,0,0,0,3,1,0,남양주시 공원관리과,031-590-2855,상시,,37.6201466609,127.1606057318,공공기관-지방자치단체,수세식,N,,Y,N,,,2024-05-01
개방화장실,다산지금어린이공원5호[지금-8],경기도 남양주시 다산지금로146번길5,경기도 남양주시 다산동 6236-+D328:S3281,N,2,3,1,0,0,0,5,1,0,남양주시 공원관리과,031-590-2855,상시,,37.5992708458,127.1731505512,공공기관-지방자치단체,수거식,Y,남자화장실+여자화장실,N,Y,남자화장실+여자화장실,,2024-05-01
개방화장실,다산진건 수변공원 2호[다산1-4],경기도 남양주시 다산 순환로 149(다산동),경기도 남양주시 다산동 6022,N,2,3,1,0,0,0,5,1,0,남양주시 공원관리과,031-590-2855,상시,,37.6232801274,127.1442166152,공공기관-지방자치단체,수세식,Y,여자화장실+장애인화장실,Y,Y,남자화장실+여자화장실,,2024-05-01
개방화장실,다산행정복지센터 1층 화장실,경기도 남양주시 다산중앙로 7(다산동),경기도 남양주시 다산동 6150,N,2,2,1,1,1,0,5,1,1,남양주시 생활자치과,031-590-2960,정시,2018-06,37.6139217042,127.1555352229,공공기관-지방자치단체,수세식,Y,장애인화장실,Y,Y,남자화장실+여자화장실,,2024-05-01
개방화장실,다산행정복지센터 2층 화장실,경기도 남양주시 다산중앙로 7(다산동),경기도 남양주시 다산동 6150,N,2,2,1,1,1,0,5,1,1,남양주시 생활자치과,031-590-2960,정시,2018-06,37.6139217042,127.1555352229,공공기관-지방자치단체,수세식,Y,장애인화장실,Y,Y,남자화장실+여자화장실,,2024-05-01
개방화장실,다산행정복지센터 3층 화장실,경기도 남양주시 다산중앙로 7(다산동),경기도 남양주시 다산동 6150,N,2,2,1,1,1,0,5,1,1,남양주시 생활자치과,031-590-2960,정시,2018-06,37.6139217042,127.1555352229,공공기관-지방자치단체,수세식,Y,장애인화장실,Y,Y,남자화장실+여자화장실,,2024-05-01
개방화장실,다산행정복지센터 4층 화장실,경기도 남양주시 다산중앙로 7(다산동),경기도 남양주시 다산동 6150,N,2,2,1,1,1,0,5,1,1,남양주시 생활자치과,031-590-2960,정시,2018-06,37.6139217042,127.1555352229,공공기관-지방자치단체,수세식,Y,장애인화장실,Y,Y,남자화장실+여자화장실,,2024-05-01
개방화장실,다산행정복지센터 5층 화장실,경기도 남양주시 다산중앙로 7(다산동),경기도 남양주시 다산동 6150,N,2,2,1,1,1,0,5,1,1,남양주시 생활자치과,031-590-2960,정시,2018-06,37.6139217042,127.1555352229,공공기관-지방자치단체,수세식,Y,장애인화장실,Y,Y,남자화장실+여자화장실,,2024-05-01
개방화장실,다이소화장실(민간개방화장실),경기도 남양주시 화도읍 경춘로 1718,경기도 남양주시 묵현리 372-25,N,2,2,1,0,0,0,4,1,0,관리사무소,031-000-0000,상시,,37.6554595318,127.2819663456,민간소유-개인,수세식,N,,N,N,,,2024-05-01
개방화장실,덕소4리 게이트볼장 화장실 (덕소리 체육공원),,경기도 남양주시 덕소리 103-4,N,1,1,0,0,0,0,2,0,0,와부읍 문화체육팀,031-590-8045,상시,,37.5870461034,127.2230649999,공공기관-지방자치단체,수거식,N,,N,N,,,2024-05-01
개방화장실,덕소역 고객용 화장실,"경기도 남양주시 와부읍 덕소로 56 (덕소리, 덕소역)",경기도 남양주시 와부읍 덕소리 90-17,N,4,5,1,1,0,0,6,1,0,한국철도공사,031-577-7788,정시,,37.5868984794,127.2087814585,공공기관-국가공공기관,수세식,Y,장애인화장실+여자화장실,N,Y,여자화장실,,2024-05-01
개방화장실,도곡1리 게이트볼장 화장실 (도곡1리 체육시설),,경기도 남양주시 도곡리 82,Y,1,0,0,0,0,0,1,0,0,와부읍 문화체육팀,031-590-8045,상시,,37.5900514347,127.2420197444,공공기관-지방자치단체,수거식,N,,N,N,,,2024-05-01
개방화장실,도곡근린공원[도곡-2],경기도 남양주시 와부읍 덕소로 270 (도곡리 1012),경기도 남양주시 와부읍 도곡리 1012번지 한강우성아파트,N,1,1,1,0,0,0,2,0,0,남양주시 공원관리과,031-590-4738,상시,,37.5772139477,127.2220695738,공공기관-지방자치단체,수세식,Y,남자화장실+여자화장실,Y,N,,,2024-05-01
개방화장실,도농역,"경기도 남양주시 경춘로 433 (도농동, 도농역)",경기도 남양주시 다산동 4056-1,N,4,5,1,1,0,0,9,1,0,한국철도공사,031-563-7788,정시,,37.6088454388,127.1611782671,공공기관-국가공공기관,수세식,Y,여자화장실+장애인화장실,N,Y,여자화장실,,2024-05-01
개방화장실,도심역 1층 화장실,경기도 남양주시 와부읍 덕소로 237,경기도 남양주시 와부읍 도곡리 1024-2,N,4,7,1,0,0,1,11,1,0,한국철도공사,031-521-8675,정시,,37.5796309615,127.2226608407,공공기관-국가공공기관,수세식,Y,장애인화장실+남자화장실+여자화장실,Y,N,,,2024-05-01
개방화장실,동성빌딩(민간개방화장실),경기도 남양주시 덕소로 269,경기도 남양주시 와부읍 도곡리 1058-3,N,1,2,1,0,0,0,2,1,0,관리사무소,031-000-0002,상시,,37.5779435263,127.2257022628,민간소유-개인,수세식,N,,N,N,,,2024-05-01
개방화장실,마석1공영주차장 옆[마석-5],경기도 남양주시 화도읍 마석중앙로 27,경기도 남양주시 마석우리 334-2,N,1,2,0,0,0,0,2,0,0,남양주시 지역경제과,031-590-2283,상시,,37.6529733111,127.3033205008,공공기관-지방자치단체,수거식,N,,Y,N,,,2024-05-01
개방화장실,마석3호 물놀이장 공원[마석-7],,경기도 남양주시 화도읍 마석우리 568,N,1,2,0,0,0,0,2,0,0,남양주시 공원관리과,031-590-4993,상시,,37.6557175909,127.2995817349,공공기관-지방자치단체,수세식,N,,Y,N,,,2024-05-01
개방화장실,마석공원(마석5일장내)[마석-4],,경기도 남양주시 마석우리 310-4,N,3,2,1,0,0,0,5,1,0,남양주시 지역경제과,031-590-2283,상시,,37.6529544106,127.3051389610,공공기관-지방자치단체,수거식,N,,N,N,,,2024-05-01
개방화장실,마석역,경기도 남양주시 화도읍 마석중앙로 107,경기도 남양주시 화도읍 마석우리 222-2번지,N,6,8,1,0,0,0,14,1,1,한국철도공사,1544-7788,정시,,37.6523382347,127.3118359189,공공기관-국가공공기관,수세식,Y,여자화장실+남자화장실+장애인화장실,Y,Y,여자화장실+남자화장실,,2024-05-01
개방화장실,마석우천 물놀이장[마석-1],,경기도 남양주시 화도읍 마석우리 303,N,2,2,1,0,0,0,3,0,0,남양주시 하천공원관리과,031-590-2843,불규칙,,37.6558260507,127.3055424518,공공기관-지방자치단체,수거식,Y,남자화장실+여자화장실,Y,N,,,2024-05-01
개방화장실,마석하늘공원 화장실[묵현-6],경기도 남양주시 화도읍 비룡로 176,경기도 남양주시 화도읍 묵현리 24-12,N,1,0,1,1,0,0,2,1,0,남양주시 공원관리과,031-590-4993,상시,,37.6668709028,127.3026715412,공공기관-지방자치단체,수세식,Y,남자화장실+여자화장실,N,Y,남자화장실+여자화장실,,2024-05-01
개방화장실,메디칼프라자(민간개방화장실),"경기도 남양주시 화도읍 맷돌로 114 (마석우리, 메디칼프라자)",경기도 남양주시 화도읍 마석우리 383-5,N,1,2,1,0,0,0,2,0,0,관리사무소,031-000-0000,상시,,37.6573981974,127.3029006859,민간소유-개인,수세식,N,,N,N,,,2024-05-01
개방화장실,모란공원 입구[월산-1],,경기도 남양주시 화도읍 월산리 246-6,N,1,3,1,0,0,0,1,0,0,남양주시 환경정책과,031-590-2848,상시,,,,공공기관-지방자치단체,수거식,N,,Y,N,,,2024-05-01
개방화장실,몽골문화촌 가족쉼터 화장실[내방-4],경기도 남양주시 수동면 비룡로 1585,경기도 남양주시 수동면 내방리 237-6,N,2,3,1,0,0,1,5,0,0,남양주시 문화관광과,031-590-4597,상시,,37.7547869188,127.2726502269,공공기관-지방자치단체,수거식,Y,남자화장실+여자화장실,Y,N,,,2024-05-01
개방화장실,묵현천 하천산책로[창현-2],경기도 남양주시 수레로 1190-6,경기도 남양주시 화도읍 창현리 629-1,N,1,2,0,0,0,0,3,0,0,남양주시 하천공원관리과,031-590-2843,상시,,37.6438256297,127.3038887139,공공기관-지방자치단체,수거식,N,,Y,Y,여자화장실,,2024-05-01
개방화장실,물맑음수목원 목재문화체험장,경기도 남양주시 수동면 지둔로307번길 47-4,경기도 남양주시 수동면 지둔리 산129,N,1,2,1,1,0,0,4,1,0,휴양시설관리과,031-590-4078,정시,,37.7057695700,127.2956028276,공공기관-지방자치단체,수세식,N,,N,Y,남자화장실+여자화장실,,2024-05-01
개방화장실,물의정원 공중화장실[진중-3],경기도 남양주시 조안면 북한강로 398,경기도 남양주시 조안면 진중리 95,N,1,2,1,0,0,0,3,1,0,남양주시 하천공원관리과,031-590-8634,상시,,37.5575094633,127.3132181686,공공기관-지방자치단체,수거식,Y,남자화장실+여자화장실,Y,N,,,2024-05-01
개방화장실,물의정원(양귀비 식재 구간)[송촌-4],,경기도 남양주시 송촌리 363-8,N,2,2,0,0,0,0,4,0,0,남양주시 환경정책과,031-590-2848,상시,,37.5625046098,127.3199376369,공공기관-지방자치단체,수거식,Y,여자화장실,N,N,,,2024-05-01
개방화장실,뱅이다리[퇴계원-1],,경기도 남양주시 퇴계원면 퇴계원리 3,N,1,1,1,0,0,0,2,0,0,남양주시 도로관리과,031-590-1392,상시,,,,공공기관-지방자치단체,수거식,Y,여자화장실,Y,N,,,2024-05-01
개방화장실,별내 어린이공원 5호[별내-10],,경기도 남양주시 별내동 904,N,1,2,1,0,0,0,3,1,0,남양주시 공원관리과,031-590-8347,상시,,37.6606185791,127.1270555250,공공기관-지방자치단체,수거식,Y,남자화장실+여자화장실,N,N,,,2024-05-01
개방화장실,별내도서관 지상1층,경기도 남양주시 별내면 청학로 86-1,경기도 남양주시 별내면 청학리 416,N,2,3,0,0,0,0,5,1,0,별내도서관,031-590-8803,정시,2008-06,37.7083468084,127.1178188823,공공기관-지방자치단체,수세식,N,,N,N,,,2024-05-01
개방화장실,별내도서관 지상3층,경기도 남양주시 별내면 청학로 86-1,경기도 남양주시 별내면 청학리 416,N,2,3,1,0,0,0,5,0,0,별내도서관,031-590-8803,정시,2008-06,37.7083468084,127.1178188823,공공기관-지방자치단체,수세식,N,,N,N,,,2024-05-01
개방화장실,별내도서관 지상4층,경기도 남양주시 별내면 청학로 86-1,경기도 남양주시 별내면 청학리 416,N,2,3,1,0,0,0,5,0,0,별내도서관,031-590-8803,정시,2008-06,37.7083468084,127.1178188823,공공기관-지방자치단체,수세식,N,,N,N,,,2024-05-01
개방화장실,별내도서관 지상5층,경기도 남양주시 별내면 청학로 86-1,경기도 남양주시 별내면 청학리 416,N,2,3,0,0,0,0,5,1,0,별내도서관,031-590-8803,정시,2008-06,37.7083468084,127.1178188823,공공기관-지방자치단체,수세식,N,,N,N,,,2024-05-01
개방화장실,별내도서관 지하1층,경기도 남양주시 별내면 청학로 86-1,경기도 남양주시 별내면 청학리 416,N,2,3,1,0,0,0,5,0,0,별내도서관,031-590-8803,정시,2008-06,37.7083468084,127.1178188823,공공기관-지방자치단체,수세식,N,,N,N,,,2024-05-01
개방화장실,별내동 버스차고지[별내-11],,경기도 남양주시 별내동 799,N,1,1,0,0,0,0,2,0,0,남양주시 환경정책과,031-590-2848,상시,,37.6753259166,127.1138821388,공공기관-지방자치단체,수거식,N,,Y,N,,,2024-05-01
개방화장실,별내동7 무궁화공원[별내-7],경기도 남양주시 별내중앙로 112,경기도 남양주시 별내동 1062,N,3,3,1,0,0,1,6,0,0,남양주시 공원관리과,031-590-8676,상시,,37.6516141949,127.1197876006,공공기관-지방자치단체,수세식,Y,남자화장실+여자화장실,Y,N,,,2024-05-01
개방화장실,별내면사무소 1층,경기도 남양주시 별내면 청학로8번길 22,경기도 남양주시 광전리 122-6,N,2,2,1,1,0,0,3,1,0,별내면사무소,031-590-2606,정시,,37.7027000851,127.1248699119,공공기관-지방자치단체,수세식,Y,남자화장실+여자화장실,Y,Y,여자화장실,,2024-05-01
개방화장실,별내면제2공영주차장(청학교 하부)[청학-6],경기도 남양주시 별내면 송산로 823,경기도 남양주시 별내면 청학리 500-12,N,1,2,0,0,0,0,2,0,0,남양주도시공사 주차시설부,031-560-1541,상시,,37.7076603424,127.1118549822,공공기관-지방공공기관(지방공기업/지방출자출연기관),수세식,Y,남자화장실+여자화장실,N,N,,,2024-05-01
개방화장실,별내배드민턴장 [별내-2],,경기도 남양주시 별내동 908,N,3,2,1,0,0,0,3,0,0,남양주시 공원관리과,031-590-8676,상시,,37.6601180525,127.1231800326,공공기관-지방자치단체,수세식,Y,남자화장실+여자화장실,Y,N,,,2024-05-01
개방화장실,별내별가람역 지하 2층 화장실,경기도 남양주시 별내3로 지하345,경기도 남양주시 별내동 836,N,2,1,0,1,1,1,5,0,1,남양주도시공사 진접선운영부,031-560-1415,정시,,37.6677899679,127.1160086332,공공기관-지방자치단체,수세식,Y,장애인화장실+여자화장실+남자화장실,Y,Y,남자화장실+여자화장실,,2024-05-01
개방화장실,별내빙상장 1층,경기도 남양주시 별내동 덕송3로 76,경기도 남양주시 별내동 802,N,1,2,1,1,0,0,3,1,0,별내커뮤니티센터(빙상장),031-560-1460,정시,,37.6739444685,127.1127564223,공공기관-지방자치단체,수세식,N,,Y,N,,,2024-05-01
개방화장실,별내빙상장 2층,경기도 남양주시 별내동 덕송3로 76,경기도 남양주시 별내동 802,N,6,8,1,1,0,0,14,1,0,별내커뮤니티센터(빙상장),031-560-1460,정시,,37.6739444685,127.1127564223,공공기관-지방자치단체,수세식,N,,N,N,,,2024-05-01
개방화장실,별내역,경기도 남양주시 경춘북로 375(별내동 182-5),경기도 남양주시 별내동 182-5번지,N,4,8,1,0,0,0,12,1,1,한국철도공사,1544-7788,정시,,37.6423098589,127.1274747982,공공기관-국가공공기관,수세식,Y,여자화장실+남자화장실+장애인화장실,N,N,,,2024-05-01
개방화장실,별내역사문화공원[별내-5],경기도 남양주시 별내3로 217,경기도 남양주시 별내동 293-5,N,3,3,1,0,0,1,6,0,0,남양주시 공원관리과,031-590-8676,상시,,37.6572990546,127.1217879802,공공기관-지방자치단체,수세식,Y,남자화장실+여자화장실,Y,N,,,2024-05-01
개방화장실,별내커뮤니티센터 지상2층,경기도 남양주시 순화궁로 313(별내동),경기도 남양주시 별내동 938,N,2,2,1,1,0,0,4,1,0,별내커뮤니티센터,031-560-1460,정시,,37.6549452147,127.1270262272,공공기관-지방자치단체,수세식,N,,Y,N,,,2024-05-01
개방화장실,별내커뮤니티센터 지하1층,경기도 남양주시 순화궁로 313(별내동),경기도 남양주시 별내동 938,N,2,2,1,1,0,0,2,1,0,별내커뮤니티센터,031-560-1460,정시,,37.6549452147,127.1270262272,공공기관-지방자치단체,수세식,N,,Y,N,,,2024-05-01
개방화장실,별내테니스장[별내-1],,경기도 남양주시 별내동 861,N,2,3,1,0,0,0,5,1,0,남양주시 공원관리과,031-590-8676,상시,,37.6642522951,127.1201770841,공공기관-지방자치단체,수세식,Y,남자화장실+여자화장실,Y,N,,,2024-05-01
개방화장실,별내프라자2(민간개방화장실),경기도 남양주시 별내동 덕송1로55번길 20,경기도 남양주시 별내동 824-2,N,0,1,1,0,0,0,0,0,0,관리사무소,031-000-0000,상시,,37.6672541120,127.1175307881,민간소유-개인,수세식,N,,N,N,,,2024-05-01
개방화장실,별빛도서관 지상1층,경기도 남양주시 별내중앙로 102,경기도 남양주시 별내동 1062,N,3,3,1,1,1,0,7,1,1,별빛도서관,031-590-5342,정시,2016-07,37.6509399182,127.1203238436,공공기관-지방자치단체,수세식,N,,N,N,,,2024-05-01
개방화장실,별빛도서관 지상2층,경기도 남양주시 별내중앙로 102,경기도 남양주시 별내동 1062,N,1,3,1,1,1,0,5,1,1,별빛도서관,031-590-5342,정시,2016-07,37.6509399182,127.1203238436,공공기관-지방자치단체,수세식,N,,N,N,,,2024-05-01
개방화장실,별빛도서관 지상3층,경기도 남양주시 별내중앙로 102,경기도 남양주시 별내동 1062,N,2,3,1,1,0,0,6,1,0,별빛도서관,031-590-5342,정시,2016-07,37.6509399182,127.1203238436,공공기관-지방자치단체,수세식,N,,N,N,,,2024-05-01
공중화장실,별빛도서관 지하1층,경기도 남양주시 별내중앙로 102,경기도 남양주시 별내동 1062,N,0,0,0,0,0,0,0,0,0,별빛도서관,031-590-5342,정시,2016-07,37.6509399182,127.1203238436,공공기관-지방자치단체,수세식,N,,N,N,,,2024-05-01
공중화장실,봉선사[부평-2],경기도 남양주시 진접읍 광릉수목원로 179-25,경기도 남양주시 진접읍 부평리 258-47,N,1,4,1,0,0,0,4,0,0,남양주시 환경정책과,031-590-2848,상시,,37.7473097291,127.1876995322,공공기관-지방자치단체,수거식,Y,여자화장실+장애인화장실,Y,Y,남자화장실+여자화장실,,2024-05-01
공중화장실,부평생태습지[부평-5],,경기도 남양주시 진접읍 부평리 507-2,N,1,2,0,0,0,0,3,0,0,남양주시 도로관리과,031-590-1392,상시,,37.7448067732,127.1961870917,공공기관-지방자치단체,수거식,Y,여자화장실,Y,N,,,2024-05-01
공중화장실,북한강 자전거도로(구암리)[구암-5],,경기도 남양주시 화도읍 구암리 180-4,N,1,2,0,0,0,0,2,0,0,남양주시 도로관리과,031-590-1392,상시,,37.6711218912,127.3744116446,공공기관-지방자치단체,수거식,Y,여자화장실,Y,N,,,2024-05-01
공중화장실,북한강 자전거도로(삼봉리)[삼봉-1],,경기도 남양주시 조안면 삼봉리 235-1,N,1,2,0,0,0,0,3,0,0,남양주시 도로관리과,031-590-1392,상시,,37.5948441624,127.3390352974,공공기관-지방자치단체,수거식,Y,여자화장실,Y,N,,,2024-05-01
공중화장실,"북한강 자전거도로(진중리, 밝은광장)[진중-2]",,경기도 남양주시 조안면 진중리 317-1,N,3,3,1,0,1,0,4,1,0,남양주시 도로관리과,031-590-1395,상시,,37.5526007667,127.3134036082,공공기관-지방자치단체,수거식,Y,여자화장실,Y,N,,,2024-05-01
공중화장실,북한강야외공연장 야외화장실[금남-1],"경기도 남양주시 화도읍 북한강로 1554 (금남리, 북한강공연장)",경기도 남양주시 화도읍 금남리 174-1,N,3,3,1,0,0,1,5,0,0,남양주시 문화예술과,031-590-4598,상시,,37.6473281933,127.3656255247,공공기관-지방자치단체,수세식,Y,장애인화장실,Y,N,,,2024-05-01
공중화장실,불암사 주차장[별내-9],경기도 남양주시 불암산로 190(별내동),경기도 남양주시 별내동 797,N,1,2,1,0,0,0,3,0,0,남양주시 환경정책과,031-590-2848,상시,,37.6588698484,127.1006582777,공공기관-지방자치단체,수거식,N,,Y,N,,,2024-05-01
공중화장실,삼패지구 한강시민공원-4(풋살구장)[양정-5],경기도 남양주시 경강로 357,경기도 남양주시 삼패동 340,N,1,2,1,0,0,0,2,1,1,남양주시 환경정책과,031-590-2848,상시,,37.5939109675,127.1980155213,공공기관-지방자치단체,수거식,N,,Y,N,,,2024-05-01
공중화장실,삼패한강시민공원-5(벼룩시장 행사장)[양정-6],,경기도 남양주시 삼패동 630,N,2,3,1,1,0,0,5,1,0,남양주시 하천공원관리과,031-590-8636,상시,,37.5916226573,127.1935311933,공공기관-지방자치단체,수거식,Y,장애인화장실+여자화장실,Y,Y,여자화장실,,2024-05-01
공중화장실,상하수도센터[별내-8],경기도 남양주시 별내2로 88,경기도 남양주시 별내동 927,N,4,2,1,0,0,0,6,1,0,남양주시 공원관리과,031-590-8676,상시,,37.6472415644,127.1274737500,공공기관-지방자치단체,수세식,N,,Y,N,,,2024-05-01
공중화장실,생태공원(참나무숲갤러리)화장실[다산-2],,경기도 남양주시 다산동 6211,N,2,2,1,1,0,0,5,1,0,남양주시 공원관리과,031-590-2855,상시,,37.6030550977,127.1727730711,공공기관-지방자치단체,수거식,Y,남자화장실+여자화장실,N,Y,여자화장실,,2024-05-01
공중화장실,수동멀티스포츠센터,경기도 남양주시 화도읍 비룡로 812번길 4,경기도 남양주시 수동면 입석리 338-4번지,N,4,3,1,2,0,0,8,1,0,화도체육문화센터,031-560-1581,정시,,37.7099587027,127.3221280126,공공기관-지방공공기관(지방공기업/지방출자출연기관),수세식,N,,Y,N,,,2024-05-01
공중화장실,수석지구 한강시민공원[지금-4],,경기도 남양주시 수석동 442,N,1,1,0,0,0,0,2,0,0,남양주시 환경정책과,031-590-2848,상시,,37.5861303502,127.1744441950,공공기관-지방자치단체,수거식,N,,N,N,,,2024-05-01
공중화장실,식사동행정복지센터 장애인 화장실,경기도 고양시 일산동구 위시티2로11번길 22-21,"경기도 고양시 일산동구 위시티2로11번길 22-21 (식사동, 식사동주민센터), 1층",N,1,0,1,1,0,0,1,1,0,일산동구 식사동 행정복지센터,031-8075-6709,09시~18시,,37.6773424570,126.8137081946,N,N,N,N,N,N,N,,2022-04-08
공중화장실,식사동행정복지센터 2층 화장실,경기도 고양시 일산동구 위시티2로11번길 22-21,"경기도 고양시 일산동구 위시티2로11번길 22-21 (식사동, 식사동주민센터), 2층 민원실 앞",N,1,2,0,1,0,0,3,1,0,일산동구 식사동 행정복지센터,031-8075-6709,09시~18시,,37.6773424570,126.8137081946,N,N,N,N,N,N,N,,2022-04-08
공중화장실,식사동행정복지센터 3층 화장실,경기도 고양시 일산동구 위시티2로11번길 22-21,"경기도 고양시 일산동구 위시티2로11번길 22-21 (식사동, 식사동주민센터), 3층",N,1,2,0,1,0,0,3,0,0,일산동구 식사동 행정복지센터,031-8075-6709,09시~18시,,37.6773424570,126.8137081946,N,N,N,N,N,N,N,,2022-04-08
공중화장실,식사동행정복지센터 4층 화장실,경기도 고양시 일산동구 위시티2로11번길 22-21,"경기도 고양시 일산동구 위시티2로11번길 22-21 (식사동, 식사동주민센터), 4층",N,1,2,0,1,0,0,3,0,0,일산동구 식사동 행정복지센터,031-8075-6709,09시~18시,,37.6773424570,126.8137081946,N,N,N,N,N,N,N,,2022-04-08
공중화장실,아인스빌(민간개방화장실),경기도 남양주시 가운로1길 7,경기도 남양주시 다산동 666-1,N,2,2,1,0,0,0,3,0,0,관리사무소,031-000-0000,상시,,37.6043565257,127.1579811292,민간소유-개인,수세식,N,,N,N,,,2024-05-01
공중화장실,야구장 야외화장실,경기도 남양주시 다산지금로 91,경기도 남양주시 이패동 산87,N,1,0,1,0,0,0,1,0,0,남양주체육문화센터,031-560-1258,정시,,37.6054975037,127.1758197051,공공기관-지방공공기관(지방공기업/지방출자출연기관),수세식,N,,N,N,,,2024-05-01
공중화장실,중산동행정복지센터,경기도 고양시 일산동구 중산로 224,경기도 고양시 일산동구 중산로224,N,8,8,1,0,0,0,8,1,0,일산동구 중산동 행정복지센터,031-8075-6733,09시~18시,,37.6918176882,126.7804438059,N,N,N,N,N,N,N,,2022-04-08
공중화장실,정발산동 행정복지센터 1층,경기도 고양시 일산동구 일산로 422,"경기도 고양시 일산동구 일산로 422 (정발산동, 정발산동주민센터), 1층",N,2,3,0,0,0,0,2,0,0,정발산동 행정복지센터,031-8075-6763,09시~18시,,37.6724625611,126.7798256534,N,N,N,N,N,N,N,,2022-04-08
개방화장실,광릉 재래시장[부평-4],,경기도 남양주시 진접읍 부평리 517-15,N,1,2,0,0,0,0,3,0,0,진접읍사무소 환경팀,031-590-0000,상시,,37.7435442505,127.1991205808,공공기관-지방자치단체,수세식,Y,여자화장실+장애인화장실,Y,N,,,2024-05-01
개방화장실,광암호수공원[차산-1],,경기도 남양주시 화도읍 차산리 84-1,N,1,2,1,0,0,0,3,1,0,남양주시 공원관리과,031-590-4993,상시,,37.6372190804,127.3026836203,공공기관-지방자치단체,수세식,N,,Y,N,,,2024-05-01
개방화장실,구 마석지구대[마석-3],"경기도 남양주시 화도읍 마석중앙로 63 (마석우리, 마석지구대)",경기도 남양주시 화도읍 마석우리 292-8,N,1,2,0,0,0,0,2,0,0,남양주시 환경정책과,031-590-2848,상시,,37.6526006859,127.3069151800,공공기관-지방자치단체,수거식,Y,남자화장실+여자화장실,Y,N,,,2024-05-01
개방화장실,구암 구운천변[구암-2],,경기도 남양주시 화도읍 구암리 211-2,N,1,1,1,0,0,0,2,0,0,남양주시 환경정책과,031-590-2848,상시,,37.6793630630,127.3738143828,공공기관-지방자치단체,수거식,N,,Y,N,,,2024-05-01
개방화장실,구암지구 북한강변[구암-4],,경기도 남양주시 화도읍 구암리 98-2,N,1,2,1,0,0,0,3,0,0,남양주시 도로관리과,031-590-1395,상시,,37.6667799307,127.3746432457,공공기관-지방자치단체,수거식,Y,여자화장실,Y,N,,,2024-05-01
개방화장실,구운천변(수동계곡)[수산-4],,경기도 남양주시 수동면 수산리 594,N,1,1,0,0,0,0,1,0,0,남양주시 하천공원관리과,031-590-4418,불규칙,,,,공공기관-지방자치단체,수세식,N,,Y,N,,,2024-05-01
개방화장실,구운천변(수수동지구대)[입석-1],경기도 남양주시 수동면 비룡로 806,경기도 남양주시 수동면 입석리 335-2,N,1,0,1,0,0,0,2,0,0,남양주시 환경정책과,031-590-2848,상시,,37.7094360167,127.3221859881,공공기관-지방자치단체,수거식,N,,Y,N,,,2024-05-01
개방화장실,국민건강보험공단 남양주가평지사,"경기도 남양주시 다산지금로 163번길 87, 1층","경기도 남양주시 다산동 6246-1, 1층",N,2,2,1,1,0,0,5,1,0,국민건강보험공단 남양주가평지사,031-590-7210,정시,,37.5961027702,127.1748409492,공공기관-지방자치단체,수세식,N,,N,N,,,2024-05-01
개방화장실,군장마을 문화공원[금곡-3],경기도 남양주시 경춘로859번길 56-1,경기도 남양주시 금곡동 701-8,N,1,2,1,0,0,0,2,1,0,남양주시 도시재생과,031-590-8655,상시,,37.6358850222,127.2009172476,공공기관-지방자치단체,수거식,N,,Y,N,,,2024-05-01
개방화장실,궁안약수터[장현-1],,경기도 남양주시 진접읍 장현리 산25-13,N,2,3,0,0,0,0,3,0,0,남양주시 환경정책과,031-590-2848,상시,,37.7286280214,127.1860373038,공공기관-지방자치단체,수거식,Y,남자화장실+여자화장실,Y,N,,,2024-05-01
개방화장실,금곡동주민자치센터 2층,경기도 남양주시 석실로 724,경기도 남양주시 석실로 724,N,1,2,1,1,0,0,3,1,0,금곡양정행정복지센터,031-590-2683,정시,,37.6256630286,127.2006182353,공공기관-지방자치단체,수세식,N,,Y,N,,,2024-05-01
공중화장실,금곡동주민자치센터 3층,경기도 남양주시 석실로 724,경기도 남양주시 석실로 724,N,1,2,1,1,0,0,3,1,0,금곡양정행정복지센터,031-590-2683,정시,,37.6256630286,127.2006182353,공공기관-지방자치단체,수세식,N,,Y,N,,,2024-05-01
개방화장실,금곡동주민자치센터 5층,경기도 남양주시 석실로 724,경기도 남양주시 석실로 724,N,1,2,0,0,0,0,3,0,0,금곡양정행정복지센터,031-590-2683,정시,,37.6256630286,127.2006182353,공공기관-지방자치단체,수세식,N,,Y,N,,,2024-05-01
개방화장실,금곡양정행정복지센터 1층,경기도 남양주시 경춘로 899,경기도 남양주시 금곡동 687-16,N,3,3,1,0,0,0,3,1,0,금곡양정행정복지센터,031-590-1998,정시,,37.6330922365,127.2014611199,공공기관-지방자치단체,수세식,Y,장애인화장실,Y,N,,,2024-05-01
개방화장실,금곡양정행정복지센터 3층,경기도 남양주시 경춘로 899,경기도 남양주시 금곡동 687-16,N,3,3,1,0,0,0,6,1,0,금곡양정행정복지센터,031-590-1998,정시,,37.6330922365,127.2014611199,공공기관-지방자치단체,수세식,Y,장애인화장실,Y,N,,,2024-05-01
개방화장실,금곡양정행정복지센터 4층,경기도 남양주시 경춘로 899,경기도 남양주시 금곡동 687-16,N,3,3,1,0,0,0,6,1,0,금곡양정행정복지센터,031-590-1998,정시,,37.6330922365,127.2014611199,공공기관-지방자치단체,수세식,Y,장애인화장실,Y,N,,,2024-05-01
개방화장실,금곡양정행정복지센터 5층,경기도 남양주시 경춘로 899,경기도 남양주시 금곡동 687-16,N,3,3,1,0,0,0,6,1,0,금곡양정행정복지센터,031-590-1998,정시,,37.6330922365,127.2014611199,공공기관-지방자치단체,수세식,Y,장애인화장실,Y,N,,,2024-05-01
공중화장실,정발산동 행정복지센터 3층,경기도 고양시 일산동구 일산로 422,"경기도 고양시 일산동구 일산로 422 (정발산동, 정발산동주민센터), 3층",N,2,3,0,0,0,0,2,0,0,정발산동 행정복지센터,031-8075-6765,09시~18시,,37.6724625611,126.7798256534,N,N,N,N,N,N,N,,2022-04-08
공중화장실,장항1동 행정복지센터 화장실,경기도 고양시 일산동구 장항로225번길 72,경기도 고양시 일산동구 장항로225번길 72,N,3,5,1,1,0,0,4,1,0,일산동구 장항1동 행정복지센터,031-8075-6916,09시~18시,,37.6416253179,126.7705456419,N,N,N,N,N,N,N,,2022-04-08
공중화장실,마두2동 행정복지센터 1층~3층 각 남녀화장실(6개),경기도 고양시 일산동구 강송로 166,"경기도 고양시 일산동구 강송로 166 (마두동, 마두2동주민센터)",N,4,6,0,0,0,0,6,0,0,일산동구 마두2동주민센터,031-8075-6895,09시~18시,,37.6535899607,126.7844518842,N,N,N,N,N,N,N,,2022-04-08
공중화장실,백석1동행정복지센터 화장실,경기도 고양시 일산동구 일산로 145,"경기도 고양시 일산동구 일산로 145 (백석동, 백석1동주민센터)",N,3,3,0,0,0,0,4,1,0,일산동구 백석1동행정복지센터,031-8075-6813,09시~18시,,37.6496275642,126.7924930655,N,N,N,N,N,N,N,,2022-04-08
공중화장실,마두1동행정복지센터 2층 화장실,경기도 고양시 일산동구 일산로 218,"경기도 고양시 일산동구 일산로 218(마두동, 마두1동 행정복지센터)",N,2,3,0,0,0,0,2,0,0,마두1동행정복지센터,031-8075-6872,09시~18시,,37.6558124586,126.7897928913,N,N,N,N,N,N,N,,2022-04-08
공중화장실,고봉동 행정복지센터 화장실,경기도 고양시 일산동구 성현로 397-2,경기도 고양시 일산동구 성현로 397-2 (문봉동),N,2,2,1,1,0,0,2,1,0,고봉동행정복지센터,031-8075-6953,09시~18시,,37.7013803791,126.8277344705,N,N,N,N,N,N,N,,2022-04-08
공중화장실,장항2동행정복지센터 1층,경기도 고양시 일산동구 노루목로 114,경기도 고양시 일산동구 노루목로 114,N,0,0,1,1,0,0,1,1,0,장항2동행정복지센터,031-8075-6940,09시~18시,,37.6498842164,126.7783206813,N,N,N,N,N,N,N,,2022-04-08
공중화장실,장항2동행정복지센터 3층,경기도 고양시 일산동구 노루목로 114,경기도 고양시 일산동구 노루목로 114,N,1,1,0,0,0,0,1,0,0,장항2동행정복지센터,031-8075-6940,09시~18시,,37.6498842164,126.7783206813,N,N,N,N,N,N,N,,2022-04-08
공중화장실,장항2동행정복지센터 4층,경기도 고양시 일산동구 노루목로 114,경기도 고양시 일산동구 노루목로 114,N,1,2,0,0,0,0,3,0,0,장항2동행정복지센터,031-8075-6940,09시~18시,,37.6498842164,126.7783206813,N,N,N,N,N,N,N,,2022-04-08
공중화장실,백석2동 행정복지센터 2층,경기도 고양시 일산동구 장백로 72,"경기도 고양시 일산동구 장백로 72 3층(백석동, 백석2동주민센터)",N,1,2,0,0,0,0,3,0,0,백석2동 행정복지센터,031-8075-6843,09시~18시,,37.6439070415,126.7854969250,N,N,N,N,N,N,N,,2022-04-08
공중화장실,백석2동 행정복지센터 4층,경기도 고양시 일산동구 장백로 72,"경기도 고양시 일산동구 장백로 72 5층(백석동, 백석2동주민센터)",N,1,3,0,0,0,0,3,0,0,백석2동 행정복지센터,031-8075-6843,09시~18시,,37.6439070415,126.7854969250,N,N,N,N,N,N,N,,2022-04-08
공중화장실,풍산동행정복지센터 화장실,경기도 고양시 일산동구 숲속마을1로 36,"경기도 고양시 일산동구 숲속마을1로 36 (풍산동, 풍산동주민센터)",N,4,3,0,1,0,0,4,0,0,고양시 풍산동행정복지센터,031-8075-6783,09시~18시,,37.6640837216,126.7998617107,N,N,N,N,N,N,N,,2022-04-08
공중화장실,숲향기공원,,경기도 고양시 덕양구 향동동 359-49,N,3,1,1,0,0,0,2,1,0,공원관리과2팀,031-8075-4329,24시간,,37.5962244853,126.8874517681,N,N,N,N,N,N,N,,2022-04-08
공중화장실,향동체육공원,,경기도 고양시 덕양구 향동동 371-2,N,2,3,1,0,0,0,1,1,0,공원관리과2팀,031-8075-4329,24시간,,37.6085021729,126.8941712912,N,N,N,N,N,N,N,,2022-04-08
공중화장실,행신나루공원,경기도 고양시 덕양구 권율대로 215-2,"경기도 고양시 덕양구 권율대로 215-2, 근린공원4호 화장실 (행신동)",N,2,3,1,0,1,0,8,1,1,고양시 공원관리과 공원1팀,031-8075-4321,24시간,,37.6159423984,126.8484013975,N,N,N,N,N,N,N,,2022-04-08
공중화장실,서두물공원(생태연못 옆),경기도 고양시 덕양구 중앙로 400-2,"경기도 고양시 덕양구 중앙로 400-2, 근린공원화장실 (행신동)",N,2,3,0,0,0,0,8,1,1,고양시 공원관리과 공원1팀,031-8075-4321,24시간,,37.6165881617,126.8510925260,N,N,N,N,N,N,N,,2022-04-08
공중화장실,서정공원(인라인스케이트장 옆),경기도 고양시 덕양구 중앙로 418-2,"경기도 고양시 덕양구 중앙로 418-2, 서정공원개방화장실 (행신동)",N,2,3,1,0,0,0,7,1,0,고양시 공원관리과 공원1팀,031-8075-4321,24시간,,37.6173605513,126.8489555744,N,N,N,N,N,N,N,,2022-04-08
공중화장실,성라공원(7지역 관리사건물),경기도 고양시 덕양구 고양대로1432번길 84-18,"경기도 고양시 덕양구 고양대로1432번길 84-18, 성라공원개방화장실 (성사동)",N,1,2,0,0,0,0,2,0,0,고양시 공원관리과 공원1팀,031-8075-4321,24시간,,37.6471148087,126.8443090704,N,N,N,N,N,N,N,,2022-04-08
공중화장실,성라공원(9지역),경기도 고양시 덕양구 고양대로1432번길 114,경기도 고양시 덕양구 고양대로1432번길 114(성사동),N,2,3,1,0,0,0,3,0,0,고양시 공원관리과 공원1팀,031-8075-4321,24시간,,37.6492042667,126.8456396716,N,N,N,N,N,N,N,,2022-04-08
공중화장실,성라공원(5지역),경기도 고양시 덕양구 고양대로1432번길 114,경기도 고양시 덕양구 고양대로1432번길 114(성사동),N,2,3,1,0,0,0,3,0,0,고양시 공원관리과 공원1팀,031-8075-4321,24시간,,37.6492042667,126.8456396716,N,N,N,N,N,N,N,,2022-04-08
공중화장실,고양공원(배드민턴장 근처),경기도 고양시 덕양구 동헌로 436,경기도 고양시 덕양구 동헌로 436,N,1,1,0,0,0,0,2,0,0,고양시 공원관리과 공원1팀,031-8075-4321,24시간,,37.7058368565,126.9003218618,N,N,N,N,N,N,N,,2022-04-08
공중화장실,고양공원(관리동화장실),경기도 고양시 덕양구 동헌로 436,경기도 고양시 덕양구 동헌로 436,N,1,2,0,0,0,0,3,0,0,고양시 공원관리과 공원1팀,031-8075-4321,24시간,,37.7058368565,126.9003218618,N,N,N,N,N,N,N,,2022-04-08
공중화장실,별빛공원(관리사 옆),경기도 고양시 덕양구 호국로 506-2,"경기도 고양시 덕양구 호국로 506-2, 별빛공원개방화장실 (화정동)",N,2,3,0,0,0,0,2,0,0,고양시 공원관리과 공원1팀,031-8075-4321,24시간,,37.6330656884,126.8255850365,N,N,N,N,N,N,N,,2022-04-08
공중화장실,달빛공원(공원입구 좌측),경기도 고양시 덕양구 화수로 11-2,"경기도 고양시 덕양구 화수로 11-2, 달빛공원개방화장실 (화정동)",N,2,3,1,0,0,0,2,1,0,고양시 공원관리과 공원1팀,031-8075-4321,24시간,,37.6449857477,126.8311222242,N,N,N,N,N,N,N,,2022-04-08
공중화장실,가라산공원(경로당),경기도 고양시 덕양구 화신로 148,경기도 고양시 덕양구 화신로 148,N,1,3,1,0,0,0,3,1,0,고양시 공원관리과 공원1팀,031-8075-4321,24시간,,37.6251815778,126.8419973614,N,N,N,N,N,N,N,,2022-04-08
공중화장실,가라산공원(관리사),경기도 고양시 덕양구 화신로 148,경기도 고양시 덕양구 화신로 148,N,1,2,1,0,0,0,3,1,0,고양시 공원관리과 공원1팀,031-8075-4321,24시간,,37.6251815778,126.8419973614,N,N,N,N,N,N,N,,2022-04-08
공중화장실,소만공원,경기도 고양시 덕양구 충경로 126-2,"경기도 고양시 덕양구 충경로 126-2, 소만공원개방화장실 (행신동)",N,2,3,0,0,0,0,3,0,0,고양시 공원관리과 공원1팀,031-8075-4321,24시간,,37.6152415070,126.8439092122,N,N,N,N,N,N,N,,2022-04-08
공중화장실,고양어린이박물관,경기도 고양시 덕양구 화중로 26,경기도 고양시 덕양구 화중로 26,N,5,8,3,3,3,4,12,3,10,고양어린이박물관,031-839-0300,10~18,,37.6294819266,126.8309552119,N,N,N,N,N,N,N,,2022-04-08
공중화장실,아람누리,,경기도 고양시 덕양구 중앙로 1286,N,89,134,5,0,0,1,158,6,1,고양문화재단,031-1577-7766,8~21,,,,N,N,N,N,N,N,N,,2022-04-08
공중화장실,어울림뜨레,경기도 고양시 덕양구 어울림로 33,경기도 고양시 덕양구 어울림로 33,N,1,1,0,0,1,0,2,0,1,고양문화재단,031-1577-7766,8~21,,37.6490659292,126.8354045961,N,N,N,N,N,N,N,,2022-04-08
공중화장실,어울림누리공연장,경기도 고양시 덕양구 어울림로 33,경기도 고양시 덕양구 어울림로 33,N,28,34,1,0,1,0,67,2,1,고양문화재단,031-1577-7766,8~21,,37.6490659292,126.8354045961,N,N,N,N,N,N,N,,2022-04-08
공중화장실,화정어린이도서관 2층,경기도 고양시 덕양구 화신로 323,경기도 고양시 덕양구 화신로323,N,2,3,1,0,0,0,3,0,0,고양시 덕양구청,,9시간,,37.6328445759,126.8263237055,N,N,N,N,N,N,N,,2022-04-08
공중화장실,화정어린이도서관 1층,경기도 고양시 덕양구 화신로 323,경기도 고양시 덕양구 화신로323,N,4,1,1,1,1,0,3,0,0,고양시 덕양구청,,9시간,,37.6328445759,126.8263237055,N,N,N,N,N,N,N,,2022-04-08
공중화장실,화정도서관 2층,경기도 고양시 덕양구 은빛로77번길 8,경기도 고양시 덕양구 은빛로 77번길 8,N,2,3,1,1,0,0,2,1,0,고양시 덕양구청,,16시간,,37.6378448576,126.8370913452,N,N,N,N,N,N,N,,2022-04-08
공중화장실,화정도서관 1층,경기도 고양시 덕양구 은빛로77번길 8,경기도 고양시 덕양구 은빛로 77번길 8,N,2,3,1,1,1,0,2,1,0,고양시 덕양구청,,16시간,,37.6378448576,126.8370913452,N,N,N,N,N,N,N,,2022-04-08
공중화장실,화정도서관 지하1층,경기도 고양시 덕양구 은빛로77번길 8,경기도 고양시 덕양구 은빛로 77번길 8,N,2,3,1,1,0,0,2,1,0,고양시 덕양구청,,16시간,,37.6378448576,126.8370913452,N,N,N,N,N,N,N,,2022-04-08
공중화장실,행신어린이도서관 3층,경기도 고양시 덕양구 소원로181번길 42,경기도 고양시 덕양구 소원로 181번길 42,N,2,2,0,0,0,0,2,2,1,고양시 덕양구청,,9시간,,37.6147883415,126.8434599674,N,N,N,N,N,N,N,,2022-04-08
공중화장실,행신어린이도서관 2층,경기도 고양시 덕양구 소원로181번길 42,경기도 고양시 덕양구 소원로 181번길 42,N,2,2,0,0,0,0,2,2,1,고양시 덕양구청,,9시간,,37.6147883415,126.8434599674,N,N,N,N,N,N,N,,2022-04-08
공중화장실,행신도서관(3층),경기도 고양시 덕양구 행당로33번길 25-6,경기도 고양시 덕양구 행당로33번길 25-6,N,2,3,0,0,0,0,3,0,0,고양시 덕양구청,031-8075-5245,16시간,,37.6207691332,126.8283250582,N,N,N,N,N,N,N,,2022-04-08
공중화장실,행신도서관(2층),경기도 고양시 덕양구 행당로33번길 25-6,경기도 고양시 덕양구 행당로33번길 25-6,N,3,4,0,0,0,0,3,0,0,고양시 덕양구청,031-8075-5245,16시간,,37.6207691332,126.8283250582,N,N,N,N,N,N,N,,2022-04-08
공중화장실,원당도서관 3층,경기도 고양시 덕양구 호국로790번길 49-9,경기도 고양시 덕양구 호국로 790번길 49-9,N,2,3,0,0,0,0,4,0,0,고양시 덕양구청,,16시간,,37.6562958751,126.8388432787,N,N,N,N,N,N,N,,2022-04-08
공중화장실,원당도서관 1층,경기도 고양시 덕양구 호국로790번길 49-9,경기도 고양시 덕양구 호국로 790번길 49-9,N,2,3,0,0,0,0,0,0,0,고양시 덕양구청,,16시간,,37.6562958751,126.8388432787,N,N,N,N,N,N,N,,2022-04-08
공중화장실,신원도서관 2층,경기도 고양시 덕양구 신원2로 24,경기도 고양시 덕양구 신원2로 24 신원도서관 2층,N,2,3,0,0,0,0,5,0,0,고양시 덕양구청,031-8075-9333,16,,37.6663861525,126.8863642061,N,N,N,N,N,N,N,,2022-04-08
공중화장실,신원도서관 1층,경기도 고양시 덕양구 신원2로 24,경기도 고양시 덕양구 신원2로 24 신원도서관 1층,N,2,2,1,1,0,2,5,1,1,고양시 덕양구청,031-8075-9333,16,,37.6663861525,126.8863642061,N,N,N,N,N,N,N,,2022-04-08
공중화장실,삼송도서관 3층,경기도 고양시 덕양구 덕수천1로 73,경기도 고양시 덕양구 덕수천 1로 73,N,2,2,0,0,0,0,5,0,0,고양시 덕양구청,,16시간,,37.6488653963,126.8848420219,N,N,N,N,N,N,N,,2022-04-08
공중화장실,삼송도서관 1층,경기도 고양시 덕양구 덕수천1로 73,경기도 고양시 덕양구 덕수천 1로 73,N,2,3,1,1,1,1,4,1,1,고양시 덕양구청,,16시간,,37.6488653963,126.8848420219,N,N,N,N,N,N,N,,2022-04-08
공중화장실,덕양구청6층,경기도 고양시 덕양구 화중로104번길 13,경기도 고양시 덕양구 화중로104번길 13,N,4,5,0,1,0,0,3,0,0,경기도 고양시 덕양구청,,24시간,,37.6374571807,126.8322777968,N,N,N,N,N,N,N,,2022-04-08
공중화장실,덕양구청5층,경기도 고양시 덕양구 화중로104번길 13,경기도 고양시 덕양구 화중로104번길 13,N,3,3,1,1,0,0,2,1,0,경기도 고양시 덕양구청,,24시간,,37.6374571807,126.8322777968,N,N,N,N,N,N,N,,2022-04-08
공중화장실,덕양구청3층,경기도 고양시 덕양구 화중로104번길 13,경기도 고양시 덕양구 화중로104번길 13,N,4,5,0,1,0,0,3,0,0,경기도 고양시 덕양구청,,24시간,,37.6374571807,126.8322777968,N,N,N,N,N,N,N,,2022-04-08
공중화장실,덕양구청2층(대강당),경기도 고양시 덕양구 화중로104번길 13,경기도 고양시 덕양구 화중로104번길 13,N,4,4,0,1,0,0,4,0,0,경기도 고양시 덕양구청,,24시간,,37.6374571807,126.8322777968,N,N,N,N,N,N,N,,2022-04-08
공중화장실,덕양구청2층(주계단),경기도 고양시 덕양구 화중로104번길 13,경기도 고양시 덕양구 화중로104번길 13,N,4,5,0,1,0,0,3,0,0,경기도 고양시 덕양구청,,24시간,,37.6374571807,126.8322777968,N,N,N,N,N,N,N,,2022-04-08
공중화장실,덕양구청1층(세무민원),경기도 고양시 덕양구 화중로104번길 13,경기도 고양시 덕양구 화중로104번길 13,N,4,4,0,1,0,0,4,0,0,경기도 고양시 덕양구청,,24시간,,37.6374571807,126.8322777968,N,N,N,N,N,N,N,,2022-04-08
공중화장실,덕양구청1층(일반민원),경기도 고양시 덕양구 화중로104번길 13,경기도 고양시 덕양구 화중로104번길 13,N,4,5,0,1,0,0,3,0,0,경기도 고양시 덕양구청,,24시간,,37.6374571807,126.8322777968,N,N,N,N,N,N,N,,2022-04-08
공중화장실,도내동주유소,경기도 고양시 덕양구 중앙로 316,경기도 고양시 덕양구 도내동703,N,2,3,0,0,0,0,2,0,0,민간,031-972-1555,00:00~24:00,,37.6119668395,126.8581461040,N,N,N,N,N,N,N,,2022-04-08
공중화장실,GS LPG 충전소,경기도 고양시 덕양구 중앙로 246,경기도 고양시 덕양구 화전동 735,N,3,2,0,0,0,0,1,0,0,민간,02-3158-0083,00:00~24:00,,37.6080625835,126.8645355928,N,N,N,N,N,N,N,,2022-04-08
공중화장실,GS 주유소,경기도 고양시 덕양구 중앙로 110,경기도 고양시 덕양구 화전동 175-15,N,1,1,0,0,0,0,2,0,0,민간,02-3159-9774,06:00~24:00,,37.5989411238,126.8746726891,N,N,N,N,N,N,N,,2022-04-08
공중화장실,강선공원,,경기도 고양시 일산서구 주엽동 78,N,2,2,1,0,0,0,3,0,0,고양시 공원관리과,031-8075-4339,24시간,,37.6711720709,126.7620696172,N,N,N,N,N,N,N,,2022-04-08
공중화장실,주엽공원,경기도 고양시 일산서구 주화로 65-3,경기도 고양시 일산서구 주엽동 118,N,2,4,1,0,0,0,5,0,0,고양시 공원관리과,031-8075-4339,24시간,,37.6686738539,126.7603821956,N,N,N,N,N,N,N,,2022-04-08
공중화장실,성저근린공원,경기도 고양시 일산서구 일산로 655,경기도 고양시 일산서구 일산로 655 (대화동),N,1,2,1,0,0,0,2,0,0,고양시 공원관리과,031-8075-4339,24시간,,37.6823207861,126.7562320415,N,N,N,N,N,N,N,,2022-04-08
공중화장실,대화레포츠공원 화장실,경기도 고양시 일산서구 대화로156번길 39,경기도 고양시 일산서구 대화로156번길 39 (대화동),N,2,3,1,0,0,0,3,0,0,고양시 공원관리과,031-8075-4339,24시간,,37.6699225428,126.7370908694,N,N,N,N,N,N,N,,2022-04-08
공중화장실,샘물공원,경기도 고양시 일산서구 하이파크로 113-1,경기도 고양시 일산서구 덕이동 1525,N,1,3,1,0,0,0,4,1,0,일산서구 환경녹지과,,24시간,,37.7037184247,126.7520137924,N,N,N,N,N,N,N,,2022-04-08
공중화장실,탄중공원,경기도 고양시 일산서구 탄중로233번길 16,경기도 고양시 일산서구 탄현동 1501,N,1,3,1,0,0,1,3,1,0,일산서구 환경녹지과,,24시간,,37.6942291933,126.7709833731,N,N,N,N,N,N,N,,2022-04-08
공중화장실,숯고개 어린이공원,경기도 고양시 일산서구 홀트로 16-2,경기도 고양시 일산서구 탄현동 1486,N,2,3,1,0,0,0,4,1,0,일산서구 환경녹지과,,24시간,,37.6939839077,126.7663125986,N,N,N,N,N,N,N,,2022-04-08
공중화장실,황룡공원,경기도 고양시 일산서구 탄현로 73,경기도 고양시 일산서구 탄현동 1475,N,1,3,1,0,0,1,3,1,0,일산서구 환경녹지과,,24시간,,37.6976586056,126.7673313048,N,N,N,N,N,N,N,,2022-04-08
공중화장실,강서공원,,경기도 고양시 일산서구 대화동 2265,N,2,2,1,0,0,0,3,1,0,일산서구 환경녹지과,,24시간,,37.6721911845,126.7507315304,N,N,N,N,N,N,N,,2022-04-08
공중화장실,장성공원,,경기도 고양시 일산서구 대화동 2166,N,1,3,1,0,0,0,3,1,0,일산서구 환경녹지과,,24시간,,37.6767988850,126.7538830830,N,N,N,N,N,N,N,,2022-04-08
공중화장실,새말공원,경기도 고양시 일산서구 일산로636번길 37-32,"경기도 고양시 일산서구 일산로636번길 37-32, 새말어린이공원 화장실 (대화동)",N,2,2,1,1,1,0,3,1,3,일산서구 환경녹지과,,24시간,,37.6841819444,126.7583682773,N,N,N,N,N,N,N,,2022-04-08
공중화장실,백암공원,,경기도 고양시 일산서구 주엽동 130,N,3,3,1,0,0,1,3,1,1,일산서구 환경녹지과,,24시간,,37.6695523835,126.7553276512,N,N,N,N,N,N,N,,2022-04-08
공중화장실,오마공원,경기도 고양시 일산서구 주엽로 219,경기도 고양시 일산서구 주엽동 3,N,2,3,1,0,0,1,3,1,0,일산서구 환경녹지과,,24시간,,37.6781016743,126.7606252086,N,N,N,N,N,N,N,,2022-04-08
공중화장실,강재공원,경기도 고양시 일산서구 강성로 126,경기도 고양시 일산서구 주엽동 52,N,1,3,1,0,0,2,3,1,0,일산서구 환경녹지과,,24시간,,37.6725502166,126.7633713390,N,N,N,N,N,N,N,,2022-04-08
개방화장실,가보자빌딩,경기도 과천시 중앙로 137,경기도 과천시 중앙동 40-13번지,N,7,7,1,1,0,0,7,1,0,가보자빌딩,02-502-4962,정시,1987-08,37.4288046746,126.9917390568,민간-개인,수세식,Y,여자화장실,Y,N,,,2026-03-26
개방화장실,경마장주유소,경기도 과천시 중앙로 417,경기도 과천시 과천동 455-16번지,N,2,2,0,0,0,0,2,0,0,경마장주유소,02-507-5100,정시,1997-09,37.4507051139,126.9995389911,민간-개인,수세식,N,,N,N,,2023-09,2026-03-26
개방화장실,골든타워,경기도 과천시 별양상가1로 30,경기도 과천시 별양동 1-8번지,N,4,6,1,0,0,0,4,1,0,골든타워,02-504-0973,정시,1987-04,37.4282707107,126.9933363288,민간-개인,수세식,Y,여자화장실,Y,N,,2023-09,2026-03-26
개방화장실,과천LPG충전소,경기도 과천시 중앙로 526,경기도 과천시 과천동 30번지,N,2,2,0,0,0,0,1,1,0,과천LPG충전소,02-3418-7100,정시,2006-05,37.4558247494,127.0102688746,민간-법인,수세식,Y,여자화장실,N,N,,2023-10,2026-03-26
개방화장실,과천대성주유소,경기도 과천시 중앙로 144,경기도 과천시 별양동 1-2번지,N,1,1,0,0,0,0,1,0,0,과천대성주유소,02-503-1941,정시,2008-10,37.4288282829,126.9930387021,민간-법인,수세식,Y,여자화장실,N,N,,,2026-03-26
개방화장실,과천오피스텔,경기도 과천시 별양상가1로 18,경기도 과천시 별양동 1-14번지,N,4,4,0,0,0,0,4,0,0,과천산업㈜,02-503-3134,정시,1995-01,37.4275280222,126.9925049522,민간-법인,수세식,Y,여자화장실,Y,N,,,2026-03-26
개방화장실,과천중앙빌딩(대상빌딩),경기도 과천시 중앙로 135,경기도 과천시 중앙동 40-12번지,N,14,14,0,0,0,0,14,0,0,중앙개발,02-503-5083,정시,1997-07,37.4285874290,126.9915257758,민간-개인,수세식,Y,여자화장실,Y,N,,,2026-03-26
개방화장실,과천타워,경기도 과천시 별양상가1로 10,경기도 과천시 별양동 1-17번지,N,4,5,0,0,0,0,4,0,0,과천타워,02-502-1100,정시,1997-07,37.4269850323,126.9920000106,민간-개인,수세식,Y,여자화장실,N,N,,,2026-03-26
개방화장실,래미안슈르(AB),경기도 과천시 별양로 28,경기도 과천시 원문동 4번지 래미안슈르,Y,28,29,0,0,1,1,30,0,1,금강T/M,02-3678-9390,정시,2008-08,37.4212219530,126.9912252368,민간-법인,수세식,Y,여자화장실,N,N,,,2026-03-26
개방화장실,래미안슈르(CD),경기도 과천시 별양로 46,경기도 과천시 별양동 17번지 래미안슈르,N,14,14,2,0,0,0,14,2,0,금강T/M,02-3678-9390,정시,2008-08,37.4231132861,126.9929642177,민간-법인,수세식,Y,장애인화장실,N,N,,,2026-03-26
개방화장실,명문빌딩,경기도 과천시 새술막길 10-15,경기도 과천시 중앙동 40-8번지,N,1,2,0,0,0,0,1,0,0,명문빌딩,02-504-3301,정시,1992-12,37.4288820502,126.9908682289,민간-개인,수세식,Y,여자화장실,N,N,,2013-10,2026-03-26
개방화장실,백두상가,경기도 과천시 별양상가1로 38,경기도 과천시 별양동 1-7번지,N,5,8,1,0,0,0,5,1,0,백두상가,02-502-7475,정시,1984-12,37.4281635182,126.9935631022,민간-개인,수세식,Y,여자화장실,Y,N,,2023-09,2026-03-26
개방화장실,벽산상가,경기도 과천시 별양상가로 7,경기도 과천시 별양동 1-11번지,N,16,22,1,1,0,0,23,1,0,벽산상가,02-503-0272,정시,1985-04,37.4279985633,126.9929312719,민간-법인,수세식,Y,여자화장실,Y,N,,,2026-03-26
개방화장실,상아빌딩,경기도 과천시 별양상가1로 35,경기도 과천시 별양동 1-4번지,N,4,4,0,0,0,0,4,0,0,상아빌딩,02-502-3755,정시,1986-10,37.4285420820,126.9935605520,민간-개인,수세식,Y,여자화장실,Y,N,,,2026-03-26
개방화장실,선암주유소,경기도 과천시 중앙로 534,경기도 과천시 과천동 29-5번지,N,1,1,0,0,0,0,1,0,0,선암주유소,02-503-0077,정시,1995-01,37.4559971283,127.0105391125,민간-법인,수세식,Y,여자화장실,Y,N,,2018-07,2026-03-26
개방화장실,시대빌딩,경기도 과천시 별양로 182-2,경기도 과천시 부림동 46번지,N,2,3,0,0,0,0,4,0,0,시대빌딩,02-504-3521,정시,1983-09,37.4340960874,126.9981575450,민간-개인,수세식,Y,여자화장실,N,N,,,2026-03-26
공중화장실,분당정자청소년수련관,경기도 성남시 분당구 성남대로407번길 12,성남시 분당구 성남대로407번길 12,N,3,4,1,1,0,0,4,1,0,성남시청 자원순환과,,06시~22시,,37.3727615925,127.1063249576,N,N,N,N,N,N,N,,2021-12-31
공중화장실,성남장례식장,경기도 성남시 중원구 순암로 800,성남시 중원구 순암로 800,N,3,3,1,1,0,0,6,1,0,성남시청 자원순환과,,24시간,,37.4209275290,127.1830928280,N,N,N,N,N,N,N,,2021-12-31
공중화장실,청솔종합사회복지관,,성남시 분당구 미금로 246,N,1,3,1,1,0,0,2,1,0,성남시청 자원순환과,,08시~20시,,37.3537301444,127.1107828584,N,N,N,N,N,N,N,,2021-12-31
공중화장실,분당종합사회복지관,경기도 성남시 분당구 정자일로 33,성남시 분당구 정자일로 33,N,3,4,1,1,0,0,4,1,0,성남시청 자원순환과,,05시~21시,,37.3529918089,127.1055813728,N,N,N,N,N,N,N,,2021-12-31
공중화장실,한솔종합사회복지관 본관,경기도 성남시 분당구 내정로 94,성남시 분당구 내정로 94,N,2,3,1,1,0,0,3,1,0,성남시청 자원순환과,,09시~20시,,37.3673855464,127.1161331986,N,N,N,N,N,N,N,,2021-12-31
공중화장실,판교종합사회복지관,경기도 성남시 분당구 운중로 254,성남시 분당구 운중로 254(판교동),N,2,3,1,1,0,0,5,1,0,성남시청 자원순환과,,09시~22시,,37.3890154559,127.0909781203,N,N,N,N,N,N,N,,2021-12-31
공중화장실,수정중앙노인종합복지관,경기도 성남시 수정구 성남대로1480번길 38,성남시 수정구 성남대로 1480번길 38,N,2,3,1,1,0,0,2,1,0,성남시청 자원순환과,,9시~18시,,37.4615076099,127.1304429245,N,N,N,N,N,N,N,,2021-12-31
공중화장실,분당노인종합복지관,경기도 성남시 분당구 불정로 50,성남시 분당구 불정로 50(정자동 253번지),N,4,5,1,1,0,0,9,1,0,성남시청 자원순환과,,9시~18시,,37.3575937083,127.1125018777,N,N,N,N,N,N,N,,2021-12-31
공중화장실,신흥1동 행정복지센터,경기도 성남시 수정구 수정로188번길 7,성남시 수정구 수정로188번길 7(신흥동),N,1,2,1,1,0,0,2,1,0,성남시청 자원순환과,,09시~18시,,37.4430536236,127.1411828715,N,N,N,N,N,N,N,,2021-12-31
개방화장실,새서울프라자,경기도 과천시 별양상가2로 20,경기도 과천시 별양동 1-18번지,N,6,10,1,1,0,0,9,1,0,새서울프라자,02-3679-1400,정시,1985-12,37.4268251693,126.9925549060,민간-법인,수세식,Y,여자화장실,N,N,,,2026-03-26
개방화장실,신라상가,경기도 과천시 별양상가1로 37,경기도 과천시 별양동 1-5번지,N,2,3,0,0,0,0,3,0,0,신라상가,02-503-1188,정시,1984-12,37.4284258757,126.9937873867,민간-개인,수세식,Y,여자화장실,N,N,,,2026-03-26
개방화장실,유니온빌딩,경기도 과천시 별양상가3로 5,경기도 과천시 별양동 1-20번지,N,6,9,1,1,0,0,8,1,0,유니온빌딩,02-507-3970,정시,1985-05,37.4266568546,126.9911432514,민간-개인,수세식,Y,여자화장실,N,N,,,2026-03-26
개방화장실,제일상가,경기도 과천시 별양상가1로 31,경기도 과천시 별양동 1-3번지,N,11,11,1,1,0,0,11,1,0,제일상가,02-503-4536,정시,1984-08,37.4287117385,126.9931864222,민간-개인,수세식,Y,여자화장실,N,N,,,2026-03-26
개방화장실,퇴계원 테니스장 옆[퇴계원-2],,경기도 남양주시 퇴계원면 퇴계원리 136-1,N,1,1,0,0,0,0,2,0,0,남양주시 진건읍,031-590-4599,상시,,37.6468246405,127.1510525409,공공기관-지방자치단체,수거식,N,,Y,N,,,2024-05-01
개방화장실,퇴계원도서관 지상1층,경기도 남양주시 퇴계원면 도제원로 12,경기도 남양주시 퇴계원읍 퇴계원리 230-13,N,1,2,1,1,0,0,3,1,0,퇴계원도서관,031-590-3902,정시,2012-10,37.6491248996,127.1453176506,공공기관-지방자치단체,수세식,N,,N,N,,,2024-05-01
개방화장실,퇴계원도서관 지상2층,경기도 남양주시 퇴계원면 도제원로 12,경기도 남양주시 퇴계원읍 퇴계원리 230-13,N,1,2,0,0,0,0,3,0,0,퇴계원도서관,031-590-3902,정시,2012-10,37.6491248996,127.1453176506,공공기관-지방자치단체,수세식,N,,N,N,,,2024-05-01
개방화장실,퇴계원도서관 지상3층,경기도 남양주시 퇴계원면 도제원로 12,경기도 남양주시 퇴계원읍 퇴계원리 230-13,N,1,2,0,0,0,0,3,0,0,퇴계원도서관,031-590-3902,정시,2012-10,37.6491248996,127.1453176506,공공기관-지방자치단체,수세식,N,,N,N,,,2024-05-01
공중화장실,퇴계원도서관 지상4층,경기도 남양주시 퇴계원면 도제원로 12,경기도 남양주시 퇴계원읍 퇴계원리 230-13,N,1,2,0,0,0,0,3,0,0,퇴계원도서관,031-590-3902,정시,2012-10,37.6491248996,127.1453176506,공공기관-지방자치단체,수세식,N,,N,N,,,2024-05-01
공중화장실,퇴계원도서관 지하1층,경기도 남양주시 퇴계원면 도제원로 12,경기도 남양주시 퇴계원읍 퇴계원리 230-13,N,0,0,0,0,0,0,0,0,0,퇴계원도서관,031-590-3902,정시,2012-10,37.6491248996,127.1453176506,공공기관-지방자치단체,수세식,N,,N,N,,,2024-05-01
개방화장실,퇴계원역,경기도 남양주시 퇴계원면 경춘북로 527-1,경기도 남양주시 퇴계원읍 퇴계원리 218-8번지,N,5,6,1,0,0,1,11,1,0,한국철도공사,1544-7788,정시,,37.6476198342,127.1423888395,공공기관-국가공공기관,수세식,Y,여자화장실+남자화장실+장애인화장실,Y,Y,여자화장실,,2024-05-01
개방화장실,퇴계원종합행정타운 2층,경기도 남양주시 퇴계원읍 도제원로13,경기도 남양주시 퇴계원읍 퇴계원리 221-3번지,N,3,3,1,0,0,0,6,0,0,퇴계원읍사무소,031-590-4931,정시,2021-05,37.6489877221,127.1446608153,공공기관-지방자치단체,수세식,N,,Y,N,,,2024-05-01
개방화장실,퇴계원종합행정타운 3층,경기도 남양주시 퇴계원읍 도제원로13,경기도 남양주시 퇴계원읍 퇴계원리 221-3번지,N,3,1,1,1,0,0,5,1,0,퇴계원읍사무소,031-590-4931,정시,2021-05,37.6489877221,127.1446608153,공공기관-지방자치단체,수세식,N,,Y,N,,,2024-05-01
개방화장실,퇴계원종합행정타운 5층,경기도 남양주시 퇴계원읍 도제원로13,경기도 남양주시 퇴계원읍 퇴계원리 221-3번지,N,3,1,1,1,0,0,5,1,0,퇴계원읍사무소,031-590-4931,정시,2021-05,37.6489877221,127.1446608153,공공기관-지방자치단체,수세식,N,,Y,N,,,2024-05-01
개방화장실,퇴계원체육공원[퇴계원-4],경기도 남양주시 퇴계원읍 경춘북로613번길 85,경기도 남양주시 퇴계원읍 퇴계원리 62-1번지,N,1,1,0,0,0,0,1,0,0,퇴계원읍사무소,031-590-4931,상시,2023-05,37.6567011390,127.1469821888,공공기관-지방자치단체,수거식,N,,Y,N,,,2024-05-01
개방화장실,티나새(민간개방화장실),경기도 남양주시 다산로 71,경기도 남양주시 와부읍 팔당리 55-10,N,1,2,0,0,0,0,2,0,0,관리사무소,031-000-0000,정시,,37.5395061793,127.2569941848,민간소유-개인,수세식,N,,N,N,,,2024-05-01
개방화장실,파크골프장[별내-6],경기도 남양주시 별내3로 244,경기도 남양주시 별내동 910번지,N,3,3,1,0,0,1,6,0,0,남양주시 공원관리과,031-590-8676,상시,,37.6597222669,127.1213561955,공공기관-지방자치단체,수세식,N,,Y,N,,,2024-05-01
개방화장실,제일쇼핑,경기도 과천시 별양상가2로 14,경기도 과천시 별양동 1-13번지,Y,14,21,0,0,0,0,15,0,0,㈜동은유통,02-503-5101,정시,1984-12,37.4273318608,126.9930035831,민간-법인,수세식,Y,여자화장실,N,N,,2023-09,2026-03-26
개방화장실,중앙빌딩,경기도 과천시 새술막길 38,경기도 과천시 중앙동 40-5번지,N,2,4,1,0,0,0,4,0,0,중앙빌딩,02-503-1837,정시,1985-01,37.4289927411,126.9914552184,민간-개인,수세식,Y,여자화장실,N,N,,,2026-03-26
개방화장실,KC에너지,경기도 과천시 과천대로 20,경기도 과천시 갈현동 302-1,N,1,1,1,1,0,0,1,0,0,KC에너지,02-507-4022,정시,2007-04,37.4043675681,126.9790911355,민간-법인,수세식,Y,여자화장실,N,N,,2023-08,2026-03-26
개방화장실,KT과천스마트타워,경기도 과천시 새술막길 39,경기도 과천시 중앙동 41-1번지,N,2,3,1,0,0,0,5,1,0,㈜KT,02-503-0044,정시,2010-03,37.4294356140,126.9917347911,민간-법인,수세식,Y,장애인화장실,Y,N,,2023-08,2026-03-26
개방화장실,과천6단지 자이상가,경기도 과천시 별양로 142,경기도 과천시 별양동 52,N,4,4,4,4,0,0,6,4,0,자이에스엔디,02-6952-7662,정시,2021-11,37.4303229148,126.9989965421,민간-개인,수세식,Y,장애인화장실,N,N,,,2026-03-26
개방화장실,과천위버필드상가(1.3동),경기도 과천시 별양상가2로 35,경기도 과천시 별양동 91,N,2,2,4,4,0,0,4,4,0,위버필드 상가,02-1566-7055,정시,2021-01,37.4253889761,126.9918525646,민간-개인,수세식,Y,여자화장실,N,N,,,2026-03-26
개방화장실,렉스타운,경기도 과천시 별양상가1로 25,경기도 과천시 별양동 1-10번지,Y,6,6,0,0,0,0,6,0,0,㈜시대산업,02-502-2244,정시,2007-10,37.4282853438,126.9925450502,민간-개인,수세식,Y,여자화장실,N,N,,,2026-03-26
개방화장실,현대빌딩,경기도 과천시 중앙로 131,경기도 과천시 중앙동 40-11번지,N,3,4,1,0,0,0,3,1,0,현대빌딩,02-504-0083,정시,1985-01,37.4283793910,126.9913576441,민간-개인,수세식,Y,여자화장실,Y,N,,2023-10,2026-03-26
공중화장실,서울대공원,경기도 과천시 대공원광장로 102,경기도 과천시 막계동 159-1,N,105,170,22,5,9,12,192,17,31,서울대공원,02-500-7340,정시,1983-04,37.4364431708,127.0141028429,공공기관-지방자치단체,수세식,Y,남자화장실/여자화장실/장애인화장실,N,Y,남자화장실/여자화장실,,2026-03-26
공중화장실,대공원역,경기도 과천시 대공원대로 50,경기도 과천시 과천동 727-1번지,N,4,9,1,1,0,0,6,1,0,대공원역,02-502-5491,정시,1993-12,37.4357317261,127.0055618471,공공기관-국가공공기관,수세식,Y,남자화장실/여자화장실/장애인화장실,Y,Y,남자화장실/여자화장실,,2026-03-26
공중화장실,과천중학교,경기도 과천시 희망4길 33,경기도 과천시 중앙동 12,N,26,41,2,0,0,0,86,2,0,과천중학교,02-330-6300,미개방요일,1982-01,37.4331929911,126.9893356907,공공기관-지방자치단체,수세식,N,,N,N,,2023-01,2026-03-26
공중화장실,과천외국어고등학교,경기도 과천시 희망길 36,경기도 과천시 중앙동 11-4,Y,21,27,0,1,0,0,48,1,0,과천외국어고등학교,02-504-3300,미개방요일,1998-05,37.4326107060,126.9880849893,공공기관-특별법에 따라 설립된 법인,수세식,Y,남자화장실/여자화장실/장애인화장실,N,N,,2019-01,2026-03-26
공중화장실,청소년수련관,경기도 과천시 참마을로 9,경기도 과천시 문원동 199,N,10,10,2,0,0,0,19,2,0,과천시청 교육청소년과,02-2150-3921,정시,2007-11,37.4264279877,127.0008873763,공공기관-지방자치단체,수세식,Y,여자화장실,N,N,,,2026-03-26
공중화장실,관악산입구,경기도 과천시 관악산길 160,경기도 과천시 중앙동 42,N,2,3,1,0,0,0,3,0,0,과천시청 공원녹지과,02-3677-2341,정시,2002-10,37.4336950546,126.9887105937,공공기관-지방자치단체,수세식,Y,여자화장실,Y,N,,,2026-03-26
공중화장실,별양동 주민센터,경기도 과천시 별양로 60,경기도 과천시 별양동 12,Y,1,2,1,0,0,0,2,1,0,과천시 별양동 주민센터,02-2150-3310,상시,1985-08,37.4241711028,126.9937143153,공공기관-지방자치단체,수세식,Y,여자화장실,N,Y,여자화장실,2018-11,2026-03-26
공중화장실,문원동 주민센터,경기도 과천시 아랫배랭이로 35,경기도 과천시 문원동 187-1,N,5,4,1,1,0,0,8,1,0,과천시 문원동 주민센터,02-2150-3607,정시,2012-11,37.4263962720,127.0019160952,공공기관-지방자치단체,수세식,Y,여자화장실,N,N,,,2026-03-26
공중화장실,경기과천교육도서관,경기도 과천시 도서관길 36,경기도 과천시 별양동 2번지,N,9,13,1,0,2,0,21,1,2,경기과천교육도서관,02-3677-0371,정시,1984-01,37.4323407549,126.9965868188,공공기관-지방자치단체,수세식,Y,장애인화장실,N,N,,2024-02,2026-03-26
공중화장실,과천경찰서,경기도 과천시 통영로 20,경기도 과천시 중앙동 39,N,3,2,1,1,0,0,1,1,0,과천경찰서,02-2149-4341,정시,1990-10,37.4293559122,126.9899721040,공공기관-국가,수세식,Y,여자화장실,N,N,,2014-07,2026-03-26
공중화장실,과천소방서,경기도 과천시 통영로 12,경기도 과천시 중앙동 40,N,10,10,0,0,0,0,5,1,0,과천소방서,02-331-4221,정시,1986-01,37.4285560575,126.9905200557,공공기관-국가공공기관,수세식,N,,N,Y,여자화장실,,2026-03-26
공중화장실,과천우체국,경기도 과천시 별양로 54,경기도 과천시 별양동 10번지,N,2,1,0,1,0,0,2,0,0,과천우체국,02-503-2005,정시,1983-06,37.4238189497,126.9935697618,공공기관-국가공공기관,수세식,Y,여자화장실,Y,Y,남자화장실/여자화장실,,2026-03-26
공중화장실,과천청사관리소,경기도 과천시 관문로 47,경기도 과천시 중앙동 1번지,N,11,18,1,0,0,0,16,1,1,정부과천청사관리소,02-2110-5775,정시,1982-01,37.4285880307,126.9874907386,공공기관-국가,수세식,N,,N,Y,남자화장실/여자화장실/장애인화장실,,2026-03-26
공중화장실,국립과천과학관,경기도 과천시 상하벌로 110,경기도 과천시 과천동 758번지,N,79,92,18,18,7,2,170,15,10,국립과천과학관,02-3677-1361,정시,2008-10,37.4385349016,127.0055434050,공공기관-국가,수세식,Y,여자화장실/장애인화장실,N,Y,남자화장실/여자화장실,,2026-03-26
공중화장실,국립현대미술관,경기도 과천시 광명로 313,경기도 과천시 막계동 산48-3번지,N,15,19,5,3,2,3,36,4,5,국립현대미술관,02-2188-6023,정시,1989-12,37.4309778122,127.0199705127,공공기관-국가,수세식,N,,N,Y,남자화장실/여자화장실,,2026-03-26
공중화장실,국사편찬위원회,경기도 과천시 교육원로 86,경기도 과천시 중앙동 2-6,N,19,23,1,2,0,0,24,3,0,국사편찬위원회,02-500-8228,정시,1986-12,37.4246692829,126.9797416598,공공기관-국가공공기관,수세식,N,,N,N,,2016-07,2026-03-26
공중화장실,㈜서울랜드,경기도 과천시 광명로 181,경기도 과천시 막계동33,Y,58,133,4,9,15,7,113,4,26,서울랜드,02-509-6501,정시,1986-01,37.4365017609,127.0240724311,"공공기관-지방공공기관(지방공기업,지방출자출연기관)",수세식,N,,N,Y,남자화장실/여자화장실,,2026-03-26
공중화장실,중앙선거관리위원회,경기도 과천시 홍촌말로 44,경기도 과천시 중앙동 2-3번지,N,7,9,1,1,0,0,2,1,0,중앙선거관리위원회,02-3294-0963,정시,1996-01,37.4254890554,126.9796342681,공공기관-국가,수세식,Y,장애인화장실,N,N,,,2026-03-26
공중화장실,경마공원역,경기도 과천시 경마공원대로 105,경기도 과천시 과천동 654,N,5,6,1,0,1,1,11,1,1,경마공원역,02-502-7479,정시,1994-04,37.4441428498,127.0080501189,공공기관-국가공공기관,수세식,Y,남자화장실/여자화장실/장애인화장실,Y,Y,남자화장실/여자화장실,2021-09,2026-03-26
공중화장실,과천역,경기도 과천시 별양로 지하 177,경기도 과천시 별양동 2번지,N,3,4,1,1,0,0,4,1,0,과천역,02-504-7789,정시,1994-04,37.4334531571,126.9974610299,공공기관-국가공공기관,수세식,Y,남자화장실/여자화장실/장애인화장실,Y,Y,남자화장실/여자화장실,,2026-03-26
공중화장실,선바위역,경기도 과천시 중앙로 지하 440,경기도 과천시 과천동 355번지,N,3,5,1,0,0,0,3,1,0,선바위역,02-502-7184,정시,1994-03,37.4518575571,127.0013629043,공공기관-국가공공기관,수세식,Y,남자화장실/여자화장실/장애인화장실,Y,Y,남자화장실/여자화장실,,2026-03-26
공중화장실,정부과천청사역,경기도 과천시 중앙로 지하 100,경기도 과천시 별양동 1번지,N,3,5,1,1,0,0,4,1,0,정부과천청사역,02-502-7067,정시,1994-04,37.4260037490,126.9901869824,공공기관-국가공공기관,수세식,Y,여자화장실/장애인화장실,Y,Y,남자화장실/여자화장실/장애인화장실,,2026-03-26
공중화장실,한국마사회,경기도 과천시 경마공원대로 107,경기도 과천시 주암동 685번지,N,14,16,1,0,0,0,10,0,0,한국마사회,02-509-1519,정시,1986-12,37.4459244357,127.0116448222,공공기관-국가공공기관,수세식,N,,N,Y,여자화장실,2016-10,2026-03-26
공중화장실,에스케이오케이충전소,경기도 성남시 분당구 대왕판교로 131,성남시 분당구 대왕판교로 131 (금곡동),N,2,3,0,0,0,0,2,1,0,성남시청 자원순환과,,00시-24시,,37.3551494534,127.1012002189,N,N,N,N,N,N,N,,2021-12-31
공중화장실,한국수자원공사,경기도 과천시 교육원로 11,경기도 과천시 갈현동 649-1,N,6,7,1,0,1,0,4,1,1,케이워터운영관리㈜,02-2150-0150,정시,2006-09,37.4229903132,126.9881782860,공공기관-국가공공기관,수세식,Y,남자화장실/여자화장실/장애인화장실,Y,N,,,2026-03-26
공중화장실,한국화학융합시험연구원,경기도 과천시 교육원로 98,경기도 과천시 중앙동 2,N,2,3,1,1,0,0,4,1,0,한국화학융합시험연구원,02-2164-0096,정시,1984-05,37.4261590330,126.9782620596,민간-법인,수세식,N,,N,N,,2014-09,2026-03-26
공중화장실,과천갈현초등학교,경기도 과천시 과천대로 8가길 12,경기도 과천시 갈현동 145,N,32,23,13,19,4,2,77,12,4,과천갈현초등학교,02-509-7470,미개방요일,2022-08,37.4117420820,126.9876394336,공공기관-지방자치단체,수세식,Y,장애인화장실,N,N,,,2026-03-26
공중화장실,과천율목초등학교,경기도 과천시 과천대로 2길 37,경기도 과천시 갈현동 240-2,N,44,33,6,0,0,0,90,6,0,과천율목중학교,02-3405-6900,미개방요일,2024-01,37.4075742499,126.9826960584,공공기관-지방자치단체,수세식,Y,장애인화장실,N,N,,,2026-03-26
공중화장실,과천초등학교,경기도 과천시 온온사로 10,경기도 과천시 중앙동 75,N,28,37,2,0,3,2,63,2,4,과천초등학교,02-502-3007,미개방요일,1974-12,37.4370280135,126.9945094205,공공기관-지방자치단체,수세식,N,,N,N,,2020-12,2026-03-26
개방화장실,양정동 게이트볼장,,경기도 남양주시 이패동 산70-3,N,1,1,0,0,0,0,1,0,0,금곡양정행정복지센터,031-590-1986,상시,,37.6073424231,127.1900274596,공공기관-지방자치단체,수거식,N,,Y,N,,,2024-05-01
개방화장실,양정동 족구장,,경기도 남양주시 이패동 542-5,N,1,1,0,0,0,0,1,0,0,금곡양정행정복지센터,031-590-1986,상시,,37.6112365813,127.1860957283,공공기관-지방자치단체,수거식,N,,Y,N,,,2024-05-01
개방화장실,양정역,"경기도 남양주시 경강로 237(이패동, 양정역)",경기도 남양주시 이패동 398-32,N,4,4,1,1,0,0,8,1,0,한국철도공사,031-559-7786,정시,,37.6040242867,127.1945872181,공공기관-국가공공기관,수세식,Y,여자화장실+장애인화장실,N,Y,여자화장실,,2024-05-01
개방화장실,에코랜드 관리사무소 1층 화장실,경기도 남양주시 별내면 청학로8번길 39 (광전리),경기도 남양주시 별내면 광전리 1번지,N,1,3,1,0,0,0,2,0,0,남양주도시공사 에코랜드매립장,031-560-1242,상시,,37.7035376397,127.1274975662,공공기관-지방자치단체,수세식,N,,N,N,,,2024-05-01
개방화장실,에코랜드 다목적 체육공원내 화장실,경기도 남양주시 별내면 청학로8번길 39 (광전리),경기도 남양주시 별내면 광전리 1번지,N,1,2,1,0,0,0,2,0,0,남양주도시공사 에코랜드운영팀,031-560-1242,상시,,37.7035376397,127.1274975662,공공기관-지방자치단체,수세식,Y,장애인화장실+여자화장실,Y,Y,여자화장실,,2024-05-01
개방화장실,에코랜드 수영장 1층,경기도 남양주시 별내면 청학로8번길 39,경기도 남양주시 별내면 광전리 1,N,1,2,1,0,0,0,3,1,0,에코랜드수영장,031-560-1258,정시,,37.7035376397,127.1274975662,공공기관-지방자치단체,수세식,N,,Y,N,,,2024-05-01
개방화장실,에코랜드 수영장 2층,경기도 남양주시 별내면 청학로8번길 39,경기도 남양주시 별내면 광전리 1,N,1,2,1,0,0,0,3,1,0,에코랜드수영장,031-560-1258,정시,,37.7035376397,127.1274975662,공공기관-지방자치단체,수세식,N,,Y,N,,,2024-05-01
공중화장실,위례에너지,경기도 성남시 수정구 헌릉로 970,성남시 수정구 헌릉로 970 (복정동),N,2,2,0,0,0,0,2,0,0,성남시청 자원순환과,,00시-24시,,37.4632401127,127.1398086352,N,N,N,N,N,N,N,,2021-12-31
공중화장실,환  상어린이공원,,성남시 분당구 삼평동 626,N,1,1,1,1,0,0,2,1,0,성남시청 자원순환과,,24시,,37.4015526735,127.1020996530,N,N,N,N,N,N,N,,2021-12-31
개방화장실,제중빌딩,경기도 성남시 수정구 수정로 210,성남시 수정구 수정로 210 (신흥동),N,1,1,0,0,0,0,1,0,0,성남시청 자원순환과,,08:00~19:00,,37.4441683513,127.1431785363,N,N,N,N,N,N,N,,2021-12-31
개방화장실,제일프라자,경기도 성남시 수정구 수정남로 10,성남시 수정구 수정남로 10 (수진동),N,10,8,0,0,0,0,12,0,0,성남시청 자원순환과,,07:00~24:00,,37.4390327828,127.1292647901,N,N,N,N,N,N,N,,2021-12-31
공중화장실,탄천종합운동장-주경기장,경기도 성남시 분당구 탄천로 215,성남시 분당구 탄천로 215,N,3,4,1,1,0,0,3,1,0,성남시청 자원순환과,,6시~20시,,37.4118468016,127.1205620946,N,N,N,N,N,N,N,,2021-12-31
개방화장실,젤존타워Ⅲ,경기도 성남시 분당구 성남대로331번길 3-3,성남시 분당구 성남대로331번길 3-3 (정자동),N,2,2,0,0,0,0,2,0,0,성남시청 자원순환과,,8:00~22:00,,37.3653297931,127.1077076750,N,N,N,N,N,N,N,,2021-12-31
개방화장실,하나프라자,경기도 성남시 분당구 느티로 27,성남시 분당구 느티로 27 (정자동),N,2,3,1,1,0,0,3,1,0,성남시청 자원순환과,,24시간,,37.3688264929,127.1075087701,N,N,N,N,N,N,N,,2021-12-31
개방화장실,역사공원(소내쉼터)화장실[지금-10],,경기도 남양주시 다산동 6247,N,2,2,1,1,0,0,5,1,0,남양주시 공원관리과,031-590-2855,상시,,37.5956694972,127.1755748846,공공기관-지방자치단체,수거식,Y,남자화장실+여자화장실,N,Y,여자화장실,,2024-05-01
개방화장실,오남119안전센터 청사 1층 화장실,"경기도 남양주시 오남읍 진건오남로 772 (오남리, 오남 소방파출소)",경기도 남양주시 오남읍 오남리 761-25,N,2,2,0,0,0,0,1,0,0,오남119안전센터,031-590-0596,정시,,37.6968456711,127.2057543288,공공기관-국가,수세식,N,,N,N,,,2024-05-01
개방화장실,오남도서관 지상1층,경기도 남양주시 오남읍 양지로 240번길 12,경기도 남양주시 오남읍 양지리 512-29,N,3,4,1,0,0,0,7,0,0,오남도서관,031-590-8544,정시,2010-05,37.6979613749,127.1978548691,공공기관-지방자치단체,수세식,N,,N,N,,,2024-05-01
개방화장실,오남도서관 지상2층,경기도 남양주시 오남읍 양지로 240번길 12,경기도 남양주시 오남읍 양지리 512-29,N,4,4,1,0,0,0,7,1,0,오남도서관,031-590-8544,정시,2010-05,37.6979613749,127.1978548691,공공기관-지방자치단체,수세식,N,,N,N,,,2024-05-01
개방화장실,오남도서관 지상3층,경기도 남양주시 오남읍 양지로 240번길 12,경기도 남양주시 오남읍 양지리 512-29,N,3,3,1,0,0,0,6,1,0,오남도서관,031-590-8544,정시,2010-05,37.6979613749,127.1978548691,공공기관-지방자치단체,수세식,N,,N,N,,,2024-05-01
개방화장실,오남도서관 지하1층,경기도 남양주시 오남읍 양지로 240번길 12,경기도 남양주시 오남읍 양지리 512-29,N,3,4,1,0,0,0,7,0,0,오남도서관,031-590-8544,정시,2010-05,37.6979613749,127.1978548691,공공기관-지방자치단체,수세식,N,,N,N,,,2024-05-01
개방화장실,오남역 지하1층 화장실,경기도 남양주시 오남읍 진건오남로 지하929,경기도 남양주시 오남읍 양지리 676-4,N,5,4,1,1,1,1,11,1,1,남양주도시공사 진접선운영부,031-560-1415,정시,,37.7052174728,127.1910413650,공공기관-지방자치단체,수세식,Y,장애인화장실+여자화장실+남자화장실,Y,Y,남자화장실+여자화장실,,2024-05-01
개방화장실,오남읍사무소 2층 화장실,"경기도 남양주시 오남읍 진건오남로 806-34 (양지리, 오남읍사무소)",경기도 남양주시 오남읍 진건오남로 806-34,N,3,3,0,1,0,0,3,0,0,오남읍사무소,031-590-1432,정시,,37.6985739461,127.2048400136,공공기관-지방자치단체,수세식,N,,N,N,,,2024-05-01
개방화장실,오남읍사무소 3층 화장실,"경기도 남양주시 오남읍 진건오남로 806-34 (양지리, 오남읍사무소)",경기도 남양주시 오남읍 진건오남로 806-34,N,3,3,0,1,0,0,3,0,0,오남읍사무소,031-590-1432,정시,,37.6985739461,127.2048400136,공공기관-지방자치단체,수세식,N,,N,N,,,2024-05-01
개방화장실,오남읍주민자치센터 2층 화장실,"경기도 남양주시 오남읍 진건오남로 806-34 (양지리, 오남읍사무소)",경기도 남양주시 오남읍 진건오남로 806-34,N,2,1,0,1,0,0,3,0,0,오남읍사무소,031-590-1432,정시,,37.6985739461,127.2048400136,공공기관-지방자치단체,수세식,N,,N,N,,,2024-05-01
개방화장실,오남읍주민자치센터 3층 화장실,"경기도 남양주시 오남읍 진건오남로 806-34 (양지리, 오남읍사무소)",경기도 남양주시 오남읍 진건오남로 806-34,N,2,1,0,1,0,0,4,0,0,오남읍사무소,031-590-1432,정시,,37.6985739461,127.2048400136,공공기관-지방자치단체,수세식,N,,N,N,,,2024-05-01
개방화장실,오남체육공원 화장실[오남-4],경기도 남양주시 오남읍 오남리 852-1,경기도 남양주시 오남읍 오남리 858번지,N,2,3,1,0,0,0,4,1,0,남양주도시공사 오남체육문화센터,031-560-1225,상시,,37.6934410735,127.1971065301,공공기관-지방자치단체,수세식,Y,여자화장실,Y,N,,,2024-05-01
개방화장실,오남체육문화센터 화장실,경기도 남양주시 오남읍 진건오남로577번길11,경기도 남양주시 오남읍 오남리 538-1,N,6,5,2,4,0,0,16,2,0,남양주도시공사 오남체육문화센터,031-560-1223,정시,,37.6848590591,127.2098505915,공공기관-지방자치단체,수세식,N,,Y,Y,여자화장실,,2024-05-01
개방화장실,조안면 축구장[송촌-10],,경기도 남양주시 송촌리 502-2,N,2,4,0,0,0,0,5,0,0,와부읍 문화체육팀,031-590-5435,상시,,37.5619698072,127.3152316326,공공기관-지방자치단체,수거식,Y,여자화장실,Y,N,,,2024-05-01
개방화장실,조안면 파크골프장 화장실,,경기도 남양주시 송촌리 288,N,2,3,0,0,0,0,5,0,0,와부읍 문화체육팀,031-590-5435,정시,,37.5656921758,127.3189669507,공공기관-지방자치단체,수세식,N,,N,N,,,2024-05-01
공중화장실,관문초등학교,경기도 과천시 별양로 180-1,경기도 과천시 부림동 48,N,16,30,3,1,4,3,43,5,0,관문초등학교,02-503-3185,미개방요일,1983-04,37.4342619947,127.0011518573,공공기관-지방자치단체,수세식,N,,N,N,,,2026-03-26
공중화장실,문원초등학교,경기도 과천시 코오롱로 53,경기도 과천시 별양동 16,N,44,61,5,0,0,2,89,5,2,문원초등학교,02-507-5804,미개방요일,1982-01,37.4240232888,126.9949811268,공공기관-지방자치단체,수세식,N,,N,N,,2009-09,2026-03-26
개방화장실,유스페이스,경기도 성남시 분당구 대왕판교로 660,성남시 분당구 대왕판교로 660 (삼평동),N,3,3,1,1,0,0,7,1,0,성남시청 자원순환과,,6:00∼24:00,,37.4005799752,127.1068799859,N,N,N,N,N,N,N,,2021-12-31
개방화장실,동강프라자,경기도 성남시 중원구 도촌남로 27,성남시 중원구 도촌남로 27,N,3,4,0,0,0,0,3,0,0,성남시청 자원순환과,,24시간,,37.4145173800,127.1506194060,N,N,N,N,N,N,N,,2021-12-31
개방화장실,월드비터빌딩,경기도 성남시 분당구 정자로 13,성남시 분당구 정자로 13(정자동),N,1,2,1,0,0,0,0,0,0,성남시청 자원순환과,,24시간,,37.3637207088,127.1063157290,N,N,N,N,N,N,N,,2021-12-31
개방화장실,아산웰빙프라자,경기도 성남시 분당구 구미로 191,성남시 분당구 구미로 191(구미동),N,3,3,1,0,0,0,0,0,0,성남시청 자원순환과,,06:00~23:00,,37.3441581980,127.1278237166,N,N,N,N,N,N,N,,2021-12-31
공중화장실,롯데마트서현점장,경기도 성남시 분당구 황새울로311번길 28,성남시 분당구 황새울로311번길 28,N,5,6,1,1,0,0,11,1,0,성남시청 자원순환과,,10시-22시,,37.3860224815,127.1206018998,N,N,N,N,N,N,N,,2021-12-31
공중화장실,NC백화점,경기도 성남시 분당구 야탑로81번길 11,성남시 분당구 야탑로81번길 11,N,20,27,1,1,0,0,50,1,0,성남시청 자원순환과,,09시-22시,,37.4109403922,127.1274822762,N,N,N,N,N,N,N,,2021-12-31
공중화장실,더샵 스타파크 쇼핑몰,,성남시 분당구 정자일로 121,N,1,1,1,1,0,0,1,1,0,성남시청 자원순환과,,00시-24시,,37.3607975353,127.1055066479,N,N,N,N,N,N,N,,2021-12-31
공중화장실,테마폴리스,경기도 성남시 분당구 성남대로925번길 16,성남시 분당구 야탑동 341,N,3,4,1,1,0,0,7,1,0,성남시청 자원순환과,,24시간,,37.4130939326,127.1272456048,N,N,N,N,N,N,N,,2021-12-31
공중화장실,현대시장 보물창고건물 공용화장실,경기도 성남시 수정구 수정북로 18,성남시 수정구 수정북로 18,N,1,1,0,0,0,0,1,0,0,성남시청 자원순환과,,10시-22시,,37.4417002998,127.1319760487,N,N,N,N,N,N,N,,2021-12-31
